{"type": "FeatureCollection", "features": [{"type": "Feature", "geometry": {"type": "Point", "coordinates": [-99.1277007522943, 19.8094759464517]}, "properties": {"name": "Citlaltepec", "culture": "Aztec (Mexica)", "layer": "aztec-villages", "source": "ArcGIS / GIS for Humanities, San Antonio University", "_entity_id": "98913646-dd25-4b31-b6c4-68ffa7ca7cd4"}}, {"type": "Feature", "geometry": {"type": "Point", "coordinates": [-99.0909234288363, 19.7935473225302]}, "properties": {"name": "Zumpango", "culture": "Aztec (Mexica)", "layer": "aztec-villages", "source": "ArcGIS / GIS for Humanities, San Antonio University", "_entity_id": "cddf544b-93e3-4d1e-81ae-e4b7e52e9cdf"}}, {"type": "Feature", "geometry": {"type": "Point", "coordinates": [-99.0650811331877, 19.7338399942204]}, "properties": {"name": "Xaltocan", "culture": "Aztec (Mexica)", "layer": "aztec-villages", "source": "ArcGIS / GIS for Humanities, San Antonio University", "_entity_id": "0532c742-390d-4f51-bfd7-e2532d26096f"}}, {"type": "Feature", "geometry": {"type": "Point", "coordinates": [-99.1982758021865, 19.7318520140593]}, "properties": {"name": "Tepotzotlan", "culture": "Aztec (Mexica)", "layer": "aztec-villages", "source": "ArcGIS / GIS for Humanities, San Antonio University", "_entity_id": "d57ac6ee-7ece-4967-be3b-e10e2d6b2264"}}, {"type": "Feature", "geometry": {"type": "Point", "coordinates": [-99.1833659509778, 19.6781765506074]}, "properties": {"name": "Cuauhtitlan", "culture": "Aztec (Mexica)", "layer": "aztec-villages", "source": "ArcGIS / GIS for Humanities, San Antonio University", "_entity_id": "be05ef60-4315-4baf-a660-d0f0cb9ac3e9"}}, {"type": "Feature", "geometry": {"type": "Point", "coordinates": [-99.1575222088828, 19.6354349771426]}, "properties": {"name": "Tultitlan", "culture": "Aztec (Mexica)", "layer": "aztec-villages", "source": "ArcGIS / GIS for Humanities, San Antonio University", "_entity_id": "9f4f9f27-ba93-4925-be00-c31b50bb71bd"}}, {"type": "Feature", "geometry": {"type": "Point", "coordinates": [-99.0486717775804, 19.5869396221659]}, "properties": {"name": "Ecatepec", "culture": "Aztec (Mexica)", "layer": "aztec-villages", "source": "ArcGIS / GIS for Humanities, San Antonio University", "_entity_id": "593f7af4-c200-4902-abca-0af076bd69ae"}}, {"type": "Feature", "geometry": {"type": "Point", "coordinates": [-99.1802735871563, 19.5629989354526]}, "properties": {"name": "Tenayuca", "culture": "Aztec (Mexica)", "layer": "aztec-villages", "source": "ArcGIS / GIS for Humanities, San Antonio University", "_entity_id": "f254e408-36f5-4784-a378-7c0e314e1e8c"}}, {"type": "Feature", "geometry": {"type": "Point", "coordinates": [-99.1952938319448, 19.4923004082373]}, "properties": {"name": "Alzcapotzalco", "culture": "Aztec (Mexica)", "layer": "aztec-villages", "source": "ArcGIS / GIS for Humanities, San Antonio University", "_entity_id": "c8b4b0ae-04b1-4083-995a-d1eef12d6e3a"}}, {"type": "Feature", "geometry": {"type": "Point", "coordinates": [-99.1933058517836, 19.4674506562229]}, "properties": {"name": "Tlacopan", "culture": "Aztec (Mexica)", "layer": "aztec-villages", "source": "ArcGIS / GIS for Humanities, San Antonio University", "_entity_id": "d78485ad-d8e9-4a95-a6e4-af4305f54398"}}, {"type": "Feature", "geometry": {"type": "Point", "coordinates": [-99.1972818121059, 19.4177511530933]}, "properties": {"name": "Tacubaya", "culture": "Aztec (Mexica)", "layer": "aztec-villages", "source": "ArcGIS / GIS for Humanities, San Antonio University", "_entity_id": "02f65e75-af06-4b7d-921e-6e977bc2ad6d"}}, {"type": "Feature", "geometry": {"type": "Point", "coordinates": [-99.0123996598164, 19.6394109374648]}, "properties": {"name": "Chiconauhatla", "culture": "Aztec (Mexica)", "layer": "aztec-villages", "source": "ArcGIS / GIS for Humanities, San Antonio University", "_entity_id": "9d175cb8-12bd-4047-80fb-fbf21468f7be"}}, {"type": "Feature", "geometry": {"type": "Point", "coordinates": [-98.9736340475732, 19.6374229573037]}, "properties": {"name": "Tepexpan", "culture": "Aztec (Mexica)", "layer": "aztec-villages", "source": "ArcGIS / GIS for Humanities, San Antonio University", "_entity_id": "dc9e31f1-caaf-467c-a265-370d5d3163d3"}}, {"type": "Feature", "geometry": {"type": "Point", "coordinates": [-98.9795979880566, 19.6175431565915]}, "properties": {"name": "Tequizistlan", "culture": "Aztec (Mexica)", "layer": "aztec-villages", "source": "ArcGIS / GIS for Humanities, San Antonio University", "_entity_id": "8d05d3a2-d5e0-4985-8058-72a48dd94b0b"}}, {"type": "Feature", "geometry": {"type": "Point", "coordinates": [-98.9462272369973, 19.6381475842437]}, "properties": {"name": "Acolman", "culture": "Aztec (Mexica)", "layer": "aztec-villages", "source": "ArcGIS / GIS for Humanities, San Antonio University", "_entity_id": "fc13cb97-b814-493a-99cc-c26eca290fe4"}}, {"type": "Feature", "geometry": {"type": "Point", "coordinates": [-98.9487463567589, 19.6171549183649]}, "properties": {"name": "Tezoyuca", "culture": "Aztec (Mexica)", "layer": "aztec-villages", "source": "ArcGIS / GIS for Humanities, San Antonio University", "_entity_id": "6b1d96b9-77e0-4f14-a8df-5db363184714"}}, {"type": "Feature", "geometry": {"type": "Point", "coordinates": [-98.8941654270927, 19.5995210791345]}, "properties": {"name": "Tepetlaoztoc", "culture": "Aztec (Mexica)", "layer": "aztec-villages", "source": "ArcGIS / GIS for Humanities, San Antonio University", "_entity_id": "5ff7ee36-b57a-491e-aad1-8672fa08032a"}}, {"type": "Feature", "geometry": {"type": "Point", "coordinates": [-98.9403492905873, 19.4156253302448]}, "properties": {"name": "Chimalhuacan", "culture": "Aztec (Mexica)", "layer": "aztec-villages", "source": "ArcGIS / GIS for Humanities, San Antonio University", "_entity_id": "4e206398-3c15-4770-bfa2-5b0796d55c07"}}, {"type": "Feature", "geometry": {"type": "Point", "coordinates": [-98.9101198525491, 19.4584503670908]}, "properties": {"name": "Coatlinchan", "culture": "Aztec (Mexica)", "layer": "aztec-villages", "source": "ArcGIS / GIS for Humanities, San Antonio University", "_entity_id": "26880545-ba77-48f0-b92a-4234213f5015"}}, {"type": "Feature", "geometry": {"type": "Point", "coordinates": [-98.9052402975017, 19.5123172161667]}, "properties": {"name": "Huexotla", "culture": "Aztec (Mexica)", "layer": "aztec-villages", "source": "ArcGIS / GIS for Humanities, San Antonio University", "_entity_id": "105828a1-62c3-4401-91a8-6442392b01e9"}}, {"type": "Feature", "geometry": {"type": "Point", "coordinates": [-98.9236212773001, 19.573794319952]}, "properties": {"name": "Chiauhla", "culture": "Aztec (Mexica)", "layer": "aztec-villages", "source": "ArcGIS / GIS for Humanities, San Antonio University", "_entity_id": "1bf00c47-44b9-441e-81ad-c14f45550c58"}}, {"type": "Feature", "geometry": {"type": "Point", "coordinates": [-98.9175581991515, 19.5330850785136]}, "properties": {"name": "Texcoco", "culture": "Aztec (Mexica)", "layer": "aztec-villages", "source": "ArcGIS / GIS for Humanities, San Antonio University", "_entity_id": "1c47dc72-9f23-40c3-8a6b-ceb91a81c7c6"}}, {"type": "Feature", "geometry": {"type": "Point", "coordinates": [-99.183467498826, 19.3459957992667]}, "properties": {"name": "Tenayuca", "culture": "Aztec (Mexica)", "layer": "aztec-villages", "source": "ArcGIS / GIS for Humanities, San Antonio University", "_entity_id": "876b7bfd-658e-40e0-b419-cc40ccc8fc82"}}, {"type": "Feature", "geometry": {"type": "Point", "coordinates": [-99.0951197836511, 19.3589881106129]}, "properties": {"name": "Ixtapalapa", "culture": "Aztec (Mexica)", "layer": "aztec-villages", "source": "ArcGIS / GIS for Humanities, San Antonio University", "_entity_id": "b22bae03-fe67-413b-8aa3-ae65d34e4546"}}, {"type": "Feature", "geometry": {"type": "Point", "coordinates": [-99.1557505687337, 19.3459957992667]}, "properties": {"name": "Huitzilopochco", "culture": "Aztec (Mexica)", "layer": "aztec-villages", "source": "ArcGIS / GIS for Humanities, San Antonio University", "_entity_id": "d8bdcaa8-7544-4130-811c-5e30f5db29e7"}}, {"type": "Feature", "geometry": {"type": "Point", "coordinates": [-99.1089782482475, 19.3364681045194]}, "properties": {"name": "Colhuacan", "culture": "Aztec (Mexica)", "layer": "aztec-villages", "source": "ArcGIS / GIS for Humanities, San Antonio University", "_entity_id": "efa12e12-d96b-4a73-9c5e-8045cf61ed28"}}, {"type": "Feature", "geometry": {"type": "Point", "coordinates": [-99.1722074957793, 19.2819003975853]}, "properties": {"name": "Tlalpan", "culture": "Aztec (Mexica)", "layer": "aztec-villages", "source": "ArcGIS / GIS for Humanities, San Antonio University", "_entity_id": "7a3872cd-0a5e-4ac0-b434-9c0cae280538"}}, {"type": "Feature", "geometry": {"type": "Point", "coordinates": [-99.1021703605737, 19.237213255987]}, "properties": {"name": "Xochimilco", "culture": "Aztec (Mexica)", "layer": "aztec-villages", "source": "ArcGIS / GIS for Humanities, San Antonio University", "_entity_id": "756f9331-f774-47ce-bbfd-07d1062f29fa"}}, {"type": "Feature", "geometry": {"type": "Point", "coordinates": [-98.9270858938988, 19.3052865578284]}, "properties": {"name": "Ixtapaluca", "culture": "Aztec (Mexica)", "layer": "aztec-villages", "source": "ArcGIS / GIS for Humanities, San Antonio University", "_entity_id": "86ada74f-7354-4407-a437-81bf1b1e114a"}}, {"type": "Feature", "geometry": {"type": "Point", "coordinates": [-98.9362383923878, 19.2446557727458]}, "properties": {"name": "Chalco", "culture": "Aztec (Mexica)", "layer": "aztec-villages", "source": "ArcGIS / GIS for Humanities, San Antonio University", "_entity_id": "e51a46f1-beaa-4e4e-a79b-116f2a5e1508"}}, {"type": "Feature", "geometry": {"type": "Point", "coordinates": [-98.9712597510367, 19.2559157757925]}, "properties": {"name": "Xico", "culture": "Aztec (Mexica)", "layer": "aztec-villages", "source": "ArcGIS / GIS for Humanities, San Antonio University", "_entity_id": "48e0b131-9443-421a-8616-f8eac7733e9a"}}, {"type": "Feature", "geometry": {"type": "Point", "coordinates": [-98.9898241826399, 19.2045588338232]}, "properties": {"name": "Mixquic", "culture": "Aztec (Mexica)", "layer": "aztec-villages", "source": "ArcGIS / GIS for Humanities, San Antonio University", "_entity_id": "c209c50f-392b-4c32-b6c1-7d665a4e29b6"}}, {"type": "Feature", "geometry": {"type": "Point", "coordinates": [-98.9253535855995, 19.1441819003745]}, "properties": {"name": "Tenango", "culture": "Aztec (Mexica)", "layer": "aztec-villages", "source": "ArcGIS / GIS for Humanities, San Antonio University", "_entity_id": "2751cf92-023f-40d1-a42c-fbd1750507ae"}}, {"type": "Feature", "geometry": {"type": "Point", "coordinates": [-99.131498254341, 19.4412727467399]}, "properties": {"name": "TENOCHTITLAN", "culture": "Aztec (Mexica)", "layer": "aztec-villages", "source": "ArcGIS / GIS for Humanities, San Antonio University", "_entity_id": "f51cd142-0f9e-462c-9c60-46fbba9f1ee6"}}, {"type": "Feature", "geometry": {"type": "Point", "coordinates": [-99.1768055540023, 19.8500404413291]}, "properties": {"name": "Huehuetoca", "culture": "Aztec (Mexica)", "layer": "aztec-villages", "source": "ArcGIS / GIS for Humanities, San Antonio University", "_entity_id": "28043d8f-9ee2-45aa-bc81-82c381abdbea"}}]}