{"type": "FeatureCollection", "features": [{"type": "Feature", "id": "02f65e75-af06-4b7d-921e-6e977bc2ad6d", "geometry": {"type": "Point", "coordinates": [-99.197281812, 19.417751153]}, "properties": {"_entity_id": "02f65e75-af06-4b7d-921e-6e977bc2ad6d", "name": "Tacubaya", "place_type": "historic_city", "date_start": null, "date_end": null, "date_precision": "period_only", "date_label": null, "elevation_m": null}}, {"type": "Feature", "id": "0532c742-390d-4f51-bfd7-e2532d26096f", "geometry": {"type": "Point", "coordinates": [-99.065081133, 19.733839994]}, "properties": {"_entity_id": "0532c742-390d-4f51-bfd7-e2532d26096f", "name": "Xaltocan", "place_type": "historic_city", "date_start": null, "date_end": null, "date_precision": "period_only", "date_label": null, "elevation_m": null}}, {"type": "Feature", "id": "105828a1-62c3-4401-91a8-6442392b01e9", "geometry": {"type": "Point", "coordinates": [-98.905240298, 19.512317216]}, "properties": {"_entity_id": "105828a1-62c3-4401-91a8-6442392b01e9", "name": "Huexotla", "place_type": "historic_city", "date_start": null, "date_end": null, "date_precision": "period_only", "date_label": null, "elevation_m": null}}, {"type": "Feature", "id": "1bf00c47-44b9-441e-81ad-c14f45550c58", "geometry": {"type": "Point", "coordinates": [-98.923621277, 19.57379432]}, "properties": {"_entity_id": "1bf00c47-44b9-441e-81ad-c14f45550c58", "name": "Chiauhla", "place_type": "historic_city", "date_start": null, "date_end": null, "date_precision": "period_only", "date_label": null, "elevation_m": null}}, {"type": "Feature", "id": "1c47dc72-9f23-40c3-8a6b-ceb91a81c7c6", "geometry": {"type": "Point", "coordinates": [-98.917558199, 19.533085079]}, "properties": {"_entity_id": "1c47dc72-9f23-40c3-8a6b-ceb91a81c7c6", "name": "Texcoco", "place_type": "historic_city", "date_start": null, "date_end": null, "date_precision": "period_only", "date_label": null, "elevation_m": null}}, {"type": "Feature", "id": "26880545-ba77-48f0-b92a-4234213f5015", "geometry": {"type": "Point", "coordinates": [-98.910119853, 19.458450367]}, "properties": {"_entity_id": "26880545-ba77-48f0-b92a-4234213f5015", "name": "Coatlinchan", "place_type": "historic_city", "date_start": null, "date_end": null, "date_precision": "period_only", "date_label": null, "elevation_m": null}}, {"type": "Feature", "id": "2751cf92-023f-40d1-a42c-fbd1750507ae", "geometry": {"type": "Point", "coordinates": [-98.925353586, 19.1441819]}, "properties": {"_entity_id": "2751cf92-023f-40d1-a42c-fbd1750507ae", "name": "Tenango", "place_type": "historic_city", "date_start": null, "date_end": null, "date_precision": "period_only", "date_label": null, "elevation_m": null}}, {"type": "Feature", "id": "28043d8f-9ee2-45aa-bc81-82c381abdbea", "geometry": {"type": "Point", "coordinates": [-99.176805554, 19.850040441]}, "properties": {"_entity_id": "28043d8f-9ee2-45aa-bc81-82c381abdbea", "name": "Huehuetoca", "place_type": "historic_city", "date_start": null, "date_end": null, "date_precision": "period_only", "date_label": null, "elevation_m": null}}, {"type": "Feature", "id": "48e0b131-9443-421a-8616-f8eac7733e9a", "geometry": {"type": "Point", "coordinates": [-98.971259751, 19.255915776]}, "properties": {"_entity_id": "48e0b131-9443-421a-8616-f8eac7733e9a", "name": "Xico", "place_type": "historic_city", "date_start": null, "date_end": null, "date_precision": "period_only", "date_label": null, "elevation_m": null}}, {"type": "Feature", "id": "4e206398-3c15-4770-bfa2-5b0796d55c07", "geometry": {"type": "Point", "coordinates": [-98.940349291, 19.41562533]}, "properties": {"_entity_id": "4e206398-3c15-4770-bfa2-5b0796d55c07", "name": "Chimalhuacan", "place_type": "historic_city", "date_start": null, "date_end": null, "date_precision": "period_only", "date_label": null, "elevation_m": null}}, {"type": "Feature", "id": "593f7af4-c200-4902-abca-0af076bd69ae", "geometry": {"type": "Point", "coordinates": [-99.048671778, 19.586939622]}, "properties": {"_entity_id": "593f7af4-c200-4902-abca-0af076bd69ae", "name": "Ecatepec", "place_type": "historic_city", "date_start": null, "date_end": null, "date_precision": "period_only", "date_label": null, "elevation_m": null}}, {"type": "Feature", "id": "5ff7ee36-b57a-491e-aad1-8672fa08032a", "geometry": {"type": "Point", "coordinates": [-98.894165427, 19.599521079]}, "properties": {"_entity_id": "5ff7ee36-b57a-491e-aad1-8672fa08032a", "name": "Tepetlaoztoc", "place_type": "historic_city", "date_start": null, "date_end": null, "date_precision": "period_only", "date_label": null, "elevation_m": null}}, {"type": "Feature", "id": "6b1d96b9-77e0-4f14-a8df-5db363184714", "geometry": {"type": "Point", "coordinates": [-98.948746357, 19.617154918]}, "properties": {"_entity_id": "6b1d96b9-77e0-4f14-a8df-5db363184714", "name": "Tezoyuca", "place_type": "historic_city", "date_start": null, "date_end": null, "date_precision": "period_only", "date_label": null, "elevation_m": null}}, {"type": "Feature", "id": "756f9331-f774-47ce-bbfd-07d1062f29fa", "geometry": {"type": "Point", "coordinates": [-99.102170361, 19.237213256]}, "properties": {"_entity_id": "756f9331-f774-47ce-bbfd-07d1062f29fa", "name": "Xochimilco", "place_type": "historic_city", "date_start": null, "date_end": null, "date_precision": "period_only", "date_label": null, "elevation_m": null}}, {"type": "Feature", "id": "7a3872cd-0a5e-4ac0-b434-9c0cae280538", "geometry": {"type": "Point", "coordinates": [-99.172207496, 19.281900398]}, "properties": {"_entity_id": "7a3872cd-0a5e-4ac0-b434-9c0cae280538", "name": "Tlalpan", "place_type": "historic_city", "date_start": null, "date_end": null, "date_precision": "period_only", "date_label": null, "elevation_m": null}}, {"type": "Feature", "id": "86ada74f-7354-4407-a437-81bf1b1e114a", "geometry": {"type": "Point", "coordinates": [-98.927085894, 19.305286558]}, "properties": {"_entity_id": "86ada74f-7354-4407-a437-81bf1b1e114a", "name": "Ixtapaluca", "place_type": "historic_city", "date_start": null, "date_end": null, "date_precision": "period_only", "date_label": null, "elevation_m": null}}, {"type": "Feature", "id": "876b7bfd-658e-40e0-b419-cc40ccc8fc82", "geometry": {"type": "Point", "coordinates": [-99.183467499, 19.345995799]}, "properties": {"_entity_id": "876b7bfd-658e-40e0-b419-cc40ccc8fc82", "name": "Tenayuca", "place_type": "historic_city", "date_start": null, "date_end": null, "date_precision": "period_only", "date_label": null, "elevation_m": null}}, {"type": "Feature", "id": "8d05d3a2-d5e0-4985-8058-72a48dd94b0b", "geometry": {"type": "Point", "coordinates": [-98.979597988, 19.617543157]}, "properties": {"_entity_id": "8d05d3a2-d5e0-4985-8058-72a48dd94b0b", "name": "Tequizistlan", "place_type": "historic_city", "date_start": null, "date_end": null, "date_precision": "period_only", "date_label": null, "elevation_m": null}}, {"type": "Feature", "id": "98913646-dd25-4b31-b6c4-68ffa7ca7cd4", "geometry": {"type": "Point", "coordinates": [-99.127700752, 19.809475946]}, "properties": {"_entity_id": "98913646-dd25-4b31-b6c4-68ffa7ca7cd4", "name": "Citlaltepec", "place_type": "historic_city", "date_start": null, "date_end": null, "date_precision": "period_only", "date_label": null, "elevation_m": null}}, {"type": "Feature", "id": "9d175cb8-12bd-4047-80fb-fbf21468f7be", "geometry": {"type": "Point", "coordinates": [-99.01239966, 19.639410937]}, "properties": {"_entity_id": "9d175cb8-12bd-4047-80fb-fbf21468f7be", "name": "Chiconauhatla", "place_type": "historic_city", "date_start": null, "date_end": null, "date_precision": "period_only", "date_label": null, "elevation_m": null}}, {"type": "Feature", "id": "9f4f9f27-ba93-4925-be00-c31b50bb71bd", "geometry": {"type": "Point", "coordinates": [-99.157522209, 19.635434977]}, "properties": {"_entity_id": "9f4f9f27-ba93-4925-be00-c31b50bb71bd", "name": "Tultitlan", "place_type": "historic_city", "date_start": null, "date_end": null, "date_precision": "period_only", "date_label": null, "elevation_m": null}}, {"type": "Feature", "id": "b22bae03-fe67-413b-8aa3-ae65d34e4546", "geometry": {"type": "Point", "coordinates": [-99.095119784, 19.358988111]}, "properties": {"_entity_id": "b22bae03-fe67-413b-8aa3-ae65d34e4546", "name": "Ixtapalapa", "place_type": "historic_city", "date_start": null, "date_end": null, "date_precision": "period_only", "date_label": null, "elevation_m": null}}, {"type": "Feature", "id": "be05ef60-4315-4baf-a660-d0f0cb9ac3e9", "geometry": {"type": "Point", "coordinates": [-99.183365951, 19.678176551]}, "properties": {"_entity_id": "be05ef60-4315-4baf-a660-d0f0cb9ac3e9", "name": "Cuauhtitlan", "place_type": "historic_city", "date_start": null, "date_end": null, "date_precision": "period_only", "date_label": null, "elevation_m": null}}, {"type": "Feature", "id": "c209c50f-392b-4c32-b6c1-7d665a4e29b6", "geometry": {"type": "Point", "coordinates": [-98.989824183, 19.204558834]}, "properties": {"_entity_id": "c209c50f-392b-4c32-b6c1-7d665a4e29b6", "name": "Mixquic", "place_type": "historic_city", "date_start": null, "date_end": null, "date_precision": "period_only", "date_label": null, "elevation_m": null}}, {"type": "Feature", "id": "c8b4b0ae-04b1-4083-995a-d1eef12d6e3a", "geometry": {"type": "Point", "coordinates": [-99.195293832, 19.492300408]}, "properties": {"_entity_id": "c8b4b0ae-04b1-4083-995a-d1eef12d6e3a", "name": "Alzcapotzalco", "place_type": "historic_city", "date_start": null, "date_end": null, "date_precision": "period_only", "date_label": null, "elevation_m": null}}, {"type": "Feature", "id": "cddf544b-93e3-4d1e-81ae-e4b7e52e9cdf", "geometry": {"type": "Point", "coordinates": [-99.090923429, 19.793547323]}, "properties": {"_entity_id": "cddf544b-93e3-4d1e-81ae-e4b7e52e9cdf", "name": "Zumpango", "place_type": "historic_city", "date_start": null, "date_end": null, "date_precision": "period_only", "date_label": null, "elevation_m": null}}, {"type": "Feature", "id": "d57ac6ee-7ece-4967-be3b-e10e2d6b2264", "geometry": {"type": "Point", "coordinates": [-99.198275802, 19.731852014]}, "properties": {"_entity_id": "d57ac6ee-7ece-4967-be3b-e10e2d6b2264", "name": "Tepotzotlan", "place_type": "historic_city", "date_start": null, "date_end": null, "date_precision": "period_only", "date_label": null, "elevation_m": null}}, {"type": "Feature", "id": "d78485ad-d8e9-4a95-a6e4-af4305f54398", "geometry": {"type": "Point", "coordinates": [-99.193305852, 19.467450656]}, "properties": {"_entity_id": "d78485ad-d8e9-4a95-a6e4-af4305f54398", "name": "Tlacopan", "place_type": "historic_city", "date_start": null, "date_end": null, "date_precision": "period_only", "date_label": null, "elevation_m": null}}, {"type": "Feature", "id": "d8bdcaa8-7544-4130-811c-5e30f5db29e7", "geometry": {"type": "Point", "coordinates": [-99.155750569, 19.345995799]}, "properties": {"_entity_id": "d8bdcaa8-7544-4130-811c-5e30f5db29e7", "name": "Huitzilopochco", "place_type": "historic_city", "date_start": null, "date_end": null, "date_precision": "period_only", "date_label": null, "elevation_m": null}}, {"type": "Feature", "id": "dc9e31f1-caaf-467c-a265-370d5d3163d3", "geometry": {"type": "Point", "coordinates": [-98.973634048, 19.637422957]}, "properties": {"_entity_id": "dc9e31f1-caaf-467c-a265-370d5d3163d3", "name": "Tepexpan", "place_type": "historic_city", "date_start": null, "date_end": null, "date_precision": "period_only", "date_label": null, "elevation_m": null}}, {"type": "Feature", "id": "e51a46f1-beaa-4e4e-a79b-116f2a5e1508", "geometry": {"type": "Point", "coordinates": [-98.936238392, 19.244655773]}, "properties": {"_entity_id": "e51a46f1-beaa-4e4e-a79b-116f2a5e1508", "name": "Chalco", "place_type": "historic_city", "date_start": null, "date_end": null, "date_precision": "period_only", "date_label": null, "elevation_m": null}}, {"type": "Feature", "id": "efa12e12-d96b-4a73-9c5e-8045cf61ed28", "geometry": {"type": "Point", "coordinates": [-99.108978248, 19.336468105]}, "properties": {"_entity_id": "efa12e12-d96b-4a73-9c5e-8045cf61ed28", "name": "Colhuacan", "place_type": "historic_city", "date_start": null, "date_end": null, "date_precision": "period_only", "date_label": null, "elevation_m": null}}, {"type": "Feature", "id": "f254e408-36f5-4784-a378-7c0e314e1e8c", "geometry": {"type": "Point", "coordinates": [-99.180273587, 19.562998935]}, "properties": {"_entity_id": "f254e408-36f5-4784-a378-7c0e314e1e8c", "name": "Tenayuca", "place_type": "historic_city", "date_start": null, "date_end": null, "date_precision": "period_only", "date_label": null, "elevation_m": null}}, {"type": "Feature", "id": "f51cd142-0f9e-462c-9c60-46fbba9f1ee6", "geometry": {"type": "Point", "coordinates": [-99.131498254, 19.441272747]}, "properties": {"_entity_id": "f51cd142-0f9e-462c-9c60-46fbba9f1ee6", "name": "TENOCHTITLAN", "place_type": "historic_city", "date_start": null, "date_end": null, "date_precision": "period_only", "date_label": null, "elevation_m": null}}, {"type": "Feature", "id": "fc13cb97-b814-493a-99cc-c26eca290fe4", "geometry": {"type": "Point", "coordinates": [-98.946227237, 19.638147584]}, "properties": {"_entity_id": "fc13cb97-b814-493a-99cc-c26eca290fe4", "name": "Acolman", "place_type": "historic_city", "date_start": null, "date_end": null, "date_precision": "period_only", "date_label": null, "elevation_m": null}}]}