{"type": "FeatureCollection", "features": [{"type": "Feature", "geometry": {"type": "Point", "coordinates": [-89.45246, 20.813087]}, "properties": {"name": "Acanceh", "culture": "Maya", "layer": "maya-inscriptions", "country": "Mexiko, Yucat\u00e1n", "description": "Site with recorded Maya inscriptions.", "acronym": "ACC", "_entity_id": "6f0e994f-3c8f-4be8-8497-aab5847c9fe2"}}, {"type": "Feature", "geometry": {"type": "Point", "coordinates": [-90.3254, 19.90093]}, "properties": {"name": "Acanmul", "culture": "Maya", "layer": "maya-inscriptions", "country": "Mexiko, Campeche", "description": "Site with recorded Maya inscriptions.", "acronym": "ACN", "_entity_id": "0d0725c5-d880-49c7-850d-41dffc67cb0e"}}, {"type": "Feature", "geometry": {"type": "Point", "coordinates": [-89.962406, 14.928033]}, "properties": {"name": "Acasaguastlan", "culture": "Maya", "layer": "maya-inscriptions", "country": "Guatemala, El Progreso", "description": "Site with recorded Maya inscriptions. Also known as: San Agustin Acasaguastlan = Guaytan", "alt_name": "San Agustin Acasaguastlan = Guaytan", "_entity_id": "82bca93d-d055-49ef-9772-26ae141ed2c9"}}, {"type": "Feature", "geometry": {"type": "Point", "coordinates": [-89.939, 17.0755]}, "properties": {"name": "Acte", "culture": "Maya", "layer": "maya-inscriptions", "country": "Guatemala, Pet\u00e9n", "description": "Site with recorded Maya inscriptions. Also known as: Act\u00c3\u00a9 = Akte", "acronym": "ACT", "alt_name": "Act\u00c3\u00a9 = Akte", "_entity_id": "466617c8-55ed-4a55-864f-a6d545ff7d19"}}, {"type": "Feature", "geometry": {"type": "Point", "coordinates": [-88.58, 16.45]}, "properties": {"name": "Actun Balam", "culture": "Maya", "layer": "maya-inscriptions", "country": "Belize, Cayo", "description": "Site with recorded Maya inscriptions.", "_entity_id": "47710458-6f4e-4713-919c-669e49f295f0"}}, {"type": "Feature", "geometry": {"type": "Point", "coordinates": [-89.423006, 20.29668]}, "properties": {"name": "Actun Ch'on", "culture": "Maya", "layer": "maya-inscriptions", "country": "Mexiko, Yucat\u00e1n", "description": "Site with recorded Maya inscriptions. Also known as: Actun Chon = Actun Ch\u00c3\u00b3n", "acronym": "ATC", "alt_name": "Actun Chon = Actun Ch\u00c3\u00b3n", "_entity_id": "5afbf643-2d12-42d9-956b-70ba46d98ed8"}}, {"type": "Feature", "geometry": {"type": "Point", "coordinates": [-89.08801, 17.03631]}, "properties": {"name": "Actun Chapat", "culture": "Maya", "layer": "maya-inscriptions", "country": "Belize, Cayo", "description": "Site with recorded Maya inscriptions.", "acronym": "ACP", "_entity_id": "82394e89-cf6b-46aa-b703-077b7dfada93"}}, {"type": "Feature", "geometry": {"type": "Point", "coordinates": [-89.057019, 16.197779]}, "properties": {"name": "Actun Dzib", "culture": "Maya", "layer": "maya-inscriptions", "country": "Belize, Toledo", "description": "Site with recorded Maya inscriptions. Also known as: Actun Tz'iib = Actun Tz'ib", "alt_name": "Actun Tz'iib = Actun Tz'ib", "_entity_id": "8891b867-cd43-4063-8480-0d1788f824e9"}}, {"type": "Feature", "geometry": {"type": "Point", "coordinates": [-88.67501, 17.18516]}, "properties": {"name": "Actun Neko", "culture": "Maya", "layer": "maya-inscriptions", "country": "Belize, Cayo", "description": "Site with recorded Maya inscriptions.", "_entity_id": "d38e1206-cc5c-403a-9737-ec1d57d83945"}}, {"type": "Feature", "geometry": {"type": "Point", "coordinates": [-88.86394, 17.11356]}, "properties": {"name": "Actun Tunichil Muknal", "culture": "Maya", "layer": "maya-inscriptions", "country": "Belize, Cayo", "description": "Site with recorded Maya inscriptions. Also known as: Actun Tunichil Mucnal = Tunichil Muknal", "acronym": "ATM", "alt_name": "Actun Tunichil Mucnal = Tunichil Muknal", "_entity_id": "04c993c5-c7da-4044-829a-9f99977bbba8"}}, {"type": "Feature", "geometry": {"type": "Point", "coordinates": [-89.140828, 17.107507]}, "properties": {"name": "Actuncan", "culture": "Maya", "layer": "maya-inscriptions", "country": "Belize, Cayo", "description": "Site with recorded Maya inscriptions. Also known as: Actun Can", "acronym": "ATU", "alt_name": "Actun Can", "_entity_id": "b5a067b4-e570-423e-a5fc-3b6887bcca52"}}, {"type": "Feature", "geometry": {"type": "Point", "coordinates": [-89.456318, 20.253525]}, "properties": {"name": "Acum", "culture": "Maya", "layer": "maya-inscriptions", "country": "Mexiko, Yucat\u00e1n", "description": "Site with recorded Maya inscriptions.", "_entity_id": "324307bf-3f43-43d3-89e2-cb3104582e3b"}}, {"type": "Feature", "geometry": {"type": "Point", "coordinates": [-89.2025, 17.149]}, "properties": {"name": "Aguacate", "culture": "Maya", "layer": "maya-inscriptions", "country": "Guatemala, Pet\u00e9n", "description": "Site with recorded Maya inscriptions.", "acronym": "AGA", "_entity_id": "6ff0556d-ccc5-461e-951a-241e70831ac8"}}, {"type": "Feature", "geometry": {"type": "Point", "coordinates": [-90.38333, 16.56167]}, "properties": {"name": "Aguas Calientes", "culture": "Maya", "layer": "maya-inscriptions", "country": "Guatemala, Pet\u00e9n", "description": "Site with recorded Maya inscriptions.", "acronym": "AGC", "_entity_id": "b01b2011-6bd2-49c0-a6ea-afdbe3b47694"}}, {"type": "Feature", "geometry": {"type": "Point", "coordinates": [-90.204668, 16.395316]}, "properties": {"name": "Aguateca", "culture": "Maya", "layer": "maya-inscriptions", "country": "Guatemala, Pet\u00e9n", "description": "Site with recorded Maya inscriptions.", "acronym": "AGT", "_entity_id": "483e61af-0df1-46b7-89e7-268cfc824d23"}}, {"type": "Feature", "geometry": {"type": "Point", "coordinates": [-89.84139, 18.415]}, "properties": {"name": "Akalpeten", "culture": "Maya", "layer": "maya-inscriptions", "country": "Mexiko, Campeche", "description": "Site with recorded Maya inscriptions.", "_entity_id": "5e512fd0-ec93-4d53-b148-428380db4325"}}, {"type": "Feature", "geometry": {"type": "Point", "coordinates": [-89.30158, 20.947223]}, "properties": {"name": "Ake", "culture": "Maya", "layer": "maya-inscriptions", "country": "Mexiko, Yucat\u00e1n", "description": "Site with recorded Maya inscriptions.", "acronym": "AKE", "_entity_id": "961a823d-702d-4e06-bc96-8f2b3ebb7f44"}}, {"type": "Feature", "geometry": {"type": "Point", "coordinates": [-88.262739, 20.70775]}, "properties": {"name": "Aktun Xch'omil Ch'en", "culture": "Maya", "layer": "maya-inscriptions", "country": "Mexiko, Yucat\u00e1n", "description": "Site with recorded Maya inscriptions. Also known as: Actun Xch'omil Ch'en = Actun Xch'omil = Xch'omil Ch'en", "alt_name": "Actun Xch'omil Ch'en = Actun Xch'omil = Xch'omil Ch'en", "_entity_id": "55c784b9-c721-49e7-9c4e-28cb98a62e0d"}}, {"type": "Feature", "geometry": {"type": "Point", "coordinates": [-89.47427, 18.21732]}, "properties": {"name": "Aktunkin", "culture": "Maya", "layer": "maya-inscriptions", "country": "Mexiko, Campeche", "description": "Site with recorded Maya inscriptions.", "_entity_id": "9e30cd69-3e5e-44e2-bebd-fa27e08d23be"}}, {"type": "Feature", "geometry": {"type": "Point", "coordinates": [-87.3198, 20.40088]}, "properties": {"name": "Akumal", "culture": "Maya", "layer": "maya-inscriptions", "country": "Mexiko, Quintana Roo", "description": "Site with recorded Maya inscriptions. Also known as: Ocumal", "acronym": "AKM", "alt_name": "Ocumal", "_entity_id": "003916ee-26e4-421e-afeb-8f652b8255f5"}}, {"type": "Feature", "geometry": {"type": "Point", "coordinates": [-89.640334, 20.152959]}, "properties": {"name": "Almuchil", "culture": "Maya", "layer": "maya-inscriptions", "country": "Mexiko, Campeche", "description": "Site with recorded Maya inscriptions.", "acronym": "AMC", "_entity_id": "2801fb28-b874-4c9c-a0d8-dddac26802d0"}}, {"type": "Feature", "geometry": {"type": "Point", "coordinates": [-89.54472, 17.98889]}, "properties": {"name": "Altamira", "culture": "Maya", "layer": "maya-inscriptions", "country": "Mexiko, Campeche", "description": "Site with recorded Maya inscriptions. Also known as: Alta Mira", "acronym": "ALM", "alt_name": "Alta Mira", "_entity_id": "426d6f93-6035-4240-a881-b60ab8473bac"}}, {"type": "Feature", "geometry": {"type": "Point", "coordinates": [-89.40622, 17.99042]}, "properties": {"name": "Altar de los Reyes", "culture": "Maya", "layer": "maya-inscriptions", "country": "Mexiko, Campeche", "description": "Site with recorded Maya inscriptions.", "acronym": "ALR", "_entity_id": "56818aac-9c99-4937-8099-a7d063a8345c"}}, {"type": "Feature", "geometry": {"type": "Point", "coordinates": [-90.525184, 16.473785]}, "properties": {"name": "Altar de Sacrificios", "culture": "Maya", "layer": "maya-inscriptions", "country": "Guatemala, Pet\u00e9n", "description": "Site with recorded Maya inscriptions.", "acronym": "ALS", "_entity_id": "7c7a9e91-2599-47e7-8199-9b18b6e04045"}}, {"type": "Feature", "geometry": {"type": "Point", "coordinates": [-88.34706, 17.76394]}, "properties": {"name": "Altun Ha", "culture": "Maya", "layer": "maya-inscriptions", "country": "Belize, Belize", "description": "Site with recorded Maya inscriptions. Also known as: Altun-Ha", "acronym": "ALH", "alt_name": "Altun-Ha", "_entity_id": "e5521969-5eb0-4be1-9497-b5d899581c2c"}}, {"type": "Feature", "geometry": {"type": "Point", "coordinates": [-91.229206, 17.290197]}, "properties": {"name": "Alvaro Obregon", "culture": "Maya", "layer": "maya-inscriptions", "country": "Mexiko, Tabasco", "description": "Site with recorded Maya inscriptions. Also known as: \u00c3\u0081lvaro Obreg\u00c3\u00b3n = Alvaro Obreg\u00c3\u00b3n = Obreg\u00c3\u00b3n", "acronym": "OBR", "alt_name": "\u00c3\u0081lvaro Obreg\u00c3\u00b3n = Alvaro Obreg\u00c3\u00b3n = Obreg\u00c3\u00b3n", "_entity_id": "352250e8-fb79-4216-95c0-6273c24da9b8"}}, {"type": "Feature", "geometry": {"type": "Point", "coordinates": [-90.11464, 16.51845]}, "properties": {"name": "Anonal", "culture": "Maya", "layer": "maya-inscriptions", "country": "Guatemala, Pet\u00e9n", "description": "Site with recorded Maya inscriptions.", "acronym": "ANL", "_entity_id": "e696eb5f-bdfb-4515-8971-c8525c8e5e7b"}}, {"type": "Feature", "geometry": {"type": "Point", "coordinates": [-90.269997, 16.451927]}, "properties": {"name": "Arroyo de Piedra", "culture": "Maya", "layer": "maya-inscriptions", "country": "Guatemala, Pet\u00e9n", "description": "Site with recorded Maya inscriptions. Also known as: Arroyo Piedra = Dos Piedras", "acronym": "ARP", "alt_name": "Arroyo Piedra = Dos Piedras", "_entity_id": "c21f2087-67ec-4d5e-8a7b-030eddc1610e"}}, {"type": "Feature", "geometry": {"type": "Point", "coordinates": [-89.625181, 17.403332]}, "properties": {"name": "Bajo de la Joventud", "culture": "Maya", "layer": "maya-inscriptions", "country": "Guatemala, Pet\u00e9n", "description": "Site with recorded Maya inscriptions. Also known as: Bajo Juventud", "alt_name": "Bajo Juventud", "_entity_id": "ba2c9fec-5d18-4f7b-88c0-0ad936b091c4"}}, {"type": "Feature", "geometry": {"type": "Point", "coordinates": [-89.009253, 17.198485]}, "properties": {"name": "Baking Pot", "culture": "Maya", "layer": "maya-inscriptions", "country": "Belize, Cayo", "description": "Site with recorded Maya inscriptions.", "acronym": "BKP", "_entity_id": "17a48fb5-1fbd-4143-ade2-46e2d93b8a80"}}, {"type": "Feature", "geometry": {"type": "Point", "coordinates": [-90.08178, 19.8415]}, "properties": {"name": "Bakna", "culture": "Maya", "layer": "maya-inscriptions", "country": "Mexiko, Campeche", "description": "Site with recorded Maya inscriptions.", "acronym": "BKN", "_entity_id": "9ce69271-96dd-4e9e-92ae-0c0e8bca9d2a"}}, {"type": "Feature", "geometry": {"type": "Point", "coordinates": [-89.585, 17.88222]}, "properties": {"name": "Balakbal", "culture": "Maya", "layer": "maya-inscriptions", "country": "Mexiko, Campeche", "description": "Site with recorded Maya inscriptions.", "acronym": "BLK", "_entity_id": "a4dbf672-3bc6-4da3-93bf-c4c84c42543f"}}, {"type": "Feature", "geometry": {"type": "Point", "coordinates": [-89.944885, 18.556518]}, "properties": {"name": "Balamku", "culture": "Maya", "layer": "maya-inscriptions", "country": "Mexiko, Campeche", "description": "Site with recorded Maya inscriptions.", "acronym": "BAL", "_entity_id": "568753e5-ff11-495b-88f6-ed63cce6d33f"}}, {"type": "Feature", "geometry": {"type": "Point", "coordinates": [-90.07267, 17.06617]}, "properties": {"name": "Balamtun", "culture": "Maya", "layer": "maya-inscriptions", "country": "Guatemala, Pet\u00e9n", "description": "Site with recorded Maya inscriptions.", "acronym": "BLM", "_entity_id": "4748b4dc-8d59-4a30-bbf7-d91b13f0878d"}}, {"type": "Feature", "geometry": {"type": "Point", "coordinates": [-89.466701, 18.517393]}, "properties": {"name": "Becan", "culture": "Maya", "layer": "maya-inscriptions", "country": "Mexiko, Campeche", "description": "Site with recorded Maya inscriptions.", "acronym": "BCN", "_entity_id": "960cd78f-c29b-4b57-96a7-2e7e0920517c"}}, {"type": "Feature", "geometry": {"type": "Point", "coordinates": [-88.986627, 17.943173]}, "properties": {"name": "Bedrock", "culture": "Maya", "layer": "maya-inscriptions", "country": "Belize, Orange Walk", "description": "Site with recorded Maya inscriptions.", "_entity_id": "089db088-c681-4a9b-acb2-a69df0ca7e55"}}, {"type": "Feature", "geometry": {"type": "Point", "coordinates": [-89.76916, 17.28211]}, "properties": {"name": "Bejucal", "culture": "Maya", "layer": "maya-inscriptions", "country": "Guatemala, Pet\u00e9n", "description": "Site with recorded Maya inscriptions.", "acronym": "BJC", "_entity_id": "2f4bc4d0-012c-40cd-b734-23c87b0e5377"}}, {"type": "Feature", "geometry": {"type": "Point", "coordinates": [-93.12175, 18.41861]}, "properties": {"name": "Bellote (Island)", "culture": "Maya", "layer": "maya-inscriptions", "country": "Mexiko, Tabasco", "description": "Site with recorded Maya inscriptions. Also known as: El Bellote", "acronym": "BLL", "alt_name": "El Bellote", "_entity_id": "160a8c2f-8158-4565-a666-997760c016f7"}}, {"type": "Feature", "geometry": {"type": "Point", "coordinates": [-89.84117, 20.11]}, "properties": {"name": "Bilimkok", "culture": "Maya", "layer": "maya-inscriptions", "country": "Mexiko, Campeche", "description": "Site with recorded Maya inscriptions.", "acronym": "BMK", "_entity_id": "25f5f99f-5368-48fb-806c-844bfcab0bfa"}}, {"type": "Feature", "geometry": {"type": "Point", "coordinates": [-88.9167, 17.2167]}, "properties": {"name": "Blackman Eddy", "culture": "Maya", "layer": "maya-inscriptions", "country": "Belize, Cayo", "description": "Site with recorded Maya inscriptions.", "acronym": "BED", "_entity_id": "d0eaea05-1cc8-4b05-b581-577cdddcf7f6"}}, {"type": "Feature", "geometry": {"type": "Point", "coordinates": [-88.89345, 17.867988]}, "properties": {"name": "Blue Creek", "culture": "Maya", "layer": "maya-inscriptions", "country": "Belize, Orange Walk", "description": "Site with recorded Maya inscriptions.", "_entity_id": "1015879a-6af6-436d-b50d-15b63898195f"}}, {"type": "Feature", "geometry": {"type": "Point", "coordinates": [-91.065, 16.704]}, "properties": {"name": "Bonampak", "culture": "Maya", "layer": "maya-inscriptions", "country": "Mexiko, Chiapas", "description": "Site with recorded Maya inscriptions.", "acronym": "BPK", "_entity_id": "f0a7f35f-27ac-4e00-96da-ee5212ab1879"}}, {"type": "Feature", "geometry": {"type": "Point", "coordinates": [-89.12976, 17.13475]}, "properties": {"name": "Buenavista del Cayo", "culture": "Maya", "layer": "maya-inscriptions", "country": "Belize, Cayo", "description": "Site with recorded Maya inscriptions. Also known as: Buenavista de Cayo = Buenavista", "acronym": "BVC", "alt_name": "Buenavista de Cayo = Buenavista", "_entity_id": "e3946082-2e94-4f7f-8c11-52872959fedc"}}, {"type": "Feature", "geometry": {"type": "Point", "coordinates": [-89.073708, 17.145956]}, "properties": {"name": "Cahal Pech", "culture": "Maya", "layer": "maya-inscriptions", "country": "Belize, Cayo", "description": "Site with recorded Maya inscriptions.", "acronym": "CLP", "_entity_id": "2bf0fea3-8bc3-4809-84bc-c9796a770e7a"}}, {"type": "Feature", "geometry": {"type": "Point", "coordinates": [-89.810328, 18.105612]}, "properties": {"name": "Calakmul", "culture": "Maya", "layer": "maya-inscriptions", "country": "Mexiko, Campeche", "description": "Site with recorded Maya inscriptions.", "acronym": "CLK", "_entity_id": "e164ddae-0d38-4d8d-821c-f107bd68c611"}}, {"type": "Feature", "geometry": {"type": "Point", "coordinates": [-91.18561, 16.85975]}, "properties": {"name": "Canancax", "culture": "Maya", "layer": "maya-inscriptions", "country": "Mexiko, Chiapas", "description": "Site with recorded Maya inscriptions.", "acronym": "CNX", "_entity_id": "c504c25f-b4be-428e-8fc5-41720d63ee01"}}, {"type": "Feature", "geometry": {"type": "Point", "coordinates": [-90.03842, 16.01469]}, "properties": {"name": "Cancuen", "culture": "Maya", "layer": "maya-inscriptions", "country": "Guatemala, Pet\u00e9n", "description": "Site with recorded Maya inscriptions.", "acronym": "CNC", "_entity_id": "e34da73f-6349-4741-84cb-b7f7e2571a2e"}}, {"type": "Feature", "geometry": {"type": "Point", "coordinates": [-89.71156, 17.85172]}, "properties": {"name": "Candzibaantun", "culture": "Maya", "layer": "maya-inscriptions", "country": "Mexiko, Campeche", "description": "Site with recorded Maya inscriptions.", "acronym": "CDZ", "_entity_id": "e5dee9fd-7a59-4741-82f0-06e539218bfd"}}, {"type": "Feature", "geometry": {"type": "Point", "coordinates": [-89.97677, 20.24405]}, "properties": {"name": "Cap'eldzibtunichna", "culture": "Maya", "layer": "maya-inscriptions", "country": "Mexiko, Campeche", "description": "Site with recorded Maya inscriptions.", "acronym": "CDZ", "_entity_id": "d0975db5-a48f-43c6-abeb-ef50775e1682"}}, {"type": "Feature", "geometry": {"type": "Point", "coordinates": [-89.117781, 16.763237]}, "properties": {"name": "Caracol", "culture": "Maya", "layer": "maya-inscriptions", "country": "Belize, Cayo", "description": "Site with recorded Maya inscriptions.", "acronym": "CRC", "_entity_id": "8ea117ee-8635-4cd7-8d76-87961ebdb264"}}, {"type": "Feature", "geometry": {"type": "Point", "coordinates": [-89.345, 20.17278]}, "properties": {"name": "Chacmultun", "culture": "Maya", "layer": "maya-inscriptions", "country": "Mexiko, Yucat\u00e1n", "description": "Site with recorded Maya inscriptions.", "acronym": "CHM", "_entity_id": "d3c0c16a-72b3-47b8-bf9c-41ecbb300890"}}, {"type": "Feature", "geometry": {"type": "Point", "coordinates": [-89.52733, 18.72428]}, "properties": {"name": "Chactun", "culture": "Maya", "layer": "maya-inscriptions", "country": "Mexiko, Campeche", "description": "Site with recorded Maya inscriptions.", "_entity_id": "c58f2abc-9912-478e-bbf1-ad18f2a4bbcc"}}, {"type": "Feature", "geometry": {"type": "Point", "coordinates": [-89.49914, 17.91422]}, "properties": {"name": "Champerico", "culture": "Maya", "layer": "maya-inscriptions", "country": "Mexiko, Campeche", "description": "Site with recorded Maya inscriptions.", "acronym": "CHP", "_entity_id": "51b2c40c-77a0-4f05-a617-c553cf55ac01"}}, {"type": "Feature", "geometry": {"type": "Point", "coordinates": [-92.532619, 16.117476]}, "properties": {"name": "Chapatengo", "culture": "Maya", "layer": "maya-inscriptions", "country": "Mexiko, Chiapas", "description": "Site with recorded Maya inscriptions.", "_entity_id": "19ee10e6-be72-439b-a113-5a21afb53189"}}, {"type": "Feature", "geometry": {"type": "Point", "coordinates": [-89.815833, 17.880833]}, "properties": {"name": "Cheyokolna", "culture": "Maya", "layer": "maya-inscriptions", "country": "Mexiko, Campeche", "description": "Site with recorded Maya inscriptions.", "_entity_id": "63e043f3-98ac-412d-b381-eae2b9e45c5c"}}, {"type": "Feature", "geometry": {"type": "Point", "coordinates": [-93.003933, 16.702936]}, "properties": {"name": "Chiapa de Corzo", "culture": "Maya", "layer": "maya-inscriptions", "country": "Mexiko, Chiapas", "description": "Site with recorded Maya inscriptions.", "acronym": "CPC", "_entity_id": "42296fdc-aebc-46b3-ac5b-54cc39e609f1"}}, {"type": "Feature", "geometry": {"type": "Point", "coordinates": [-89.486376, 18.506936]}, "properties": {"name": "Chicanna", "culture": "Maya", "layer": "maya-inscriptions", "country": "Mexiko, Campeche", "description": "Site with recorded Maya inscriptions.", "acronym": "CHC", "_entity_id": "fa8267fa-42ef-47aa-bce0-536f0e648acd"}}, {"type": "Feature", "geometry": {"type": "Point", "coordinates": [-88.569032, 20.683121]}, "properties": {"name": "Chichen Itza", "culture": "Maya", "layer": "maya-inscriptions", "country": "Mexiko, Yucat\u00e1n", "description": "Site with recorded Maya inscriptions.", "acronym": "CHN", "_entity_id": "84b6eaf0-bcfb-42ee-af8d-eaf1613459de"}}, {"type": "Feature", "geometry": {"type": "Point", "coordinates": [-91.579593, 17.432832]}, "properties": {"name": "Chinikiha", "culture": "Maya", "layer": "maya-inscriptions", "country": "Mexiko, Tabasco", "description": "Site with recorded Maya inscriptions.", "acronym": "CNK", "_entity_id": "19292580-f9bf-49ea-9577-c8d7b999f4bf"}}, {"type": "Feature", "geometry": {"type": "Point", "coordinates": [-91.78492, 16.12894]}, "properties": {"name": "Chinkultic", "culture": "Maya", "layer": "maya-inscriptions", "country": "Mexiko, Chiapas", "description": "Site with recorded Maya inscriptions.", "acronym": "CKL", "_entity_id": "0028049d-7eb4-4514-a423-4352baefbcd2"}}, {"type": "Feature", "geometry": {"type": "Point", "coordinates": [-89.19963, 17.62419]}, "properties": {"name": "Chochkitam", "culture": "Maya", "layer": "maya-inscriptions", "country": "Guatemala, Pet\u00e9n", "description": "Site with recorded Maya inscriptions. Also known as: Tzotzkitam = Chochquitan = Chosquitan = BA-25", "acronym": "CKM", "alt_name": "Tzotzkitam = Chochquitan = Chosquitan = BA-25", "_entity_id": "52a6753d-cb4f-4614-b7a8-d7b18805a5e3"}}, {"type": "Feature", "geometry": {"type": "Point", "coordinates": [-89.21635, 17.16921]}, "properties": {"name": "Chunhuitz", "culture": "Maya", "layer": "maya-inscriptions", "country": "Guatemala, Pet\u00e9n", "description": "Site with recorded Maya inscriptions.", "acronym": "CNZ", "_entity_id": "789ef611-ef83-44c5-ab0f-0cf2e0b5bda1"}}, {"type": "Feature", "geometry": {"type": "Point", "coordinates": [-89.259167, 17.3675]}, "properties": {"name": "CivalSibal", "culture": "Maya", "layer": "maya-inscriptions", "country": "Guatemala, Pet\u00e9n", "description": "Site with recorded Maya inscriptions.", "acronym": "CVL", "_entity_id": "47891d7b-7ec7-4353-ae8a-5b9b3da794e7"}}, {"type": "Feature", "geometry": {"type": "Point", "coordinates": [-87.732332, 20.49004]}, "properties": {"name": "CobaNohoch Mul", "culture": "Maya", "layer": "maya-inscriptions", "country": "Mexiko, Quintana Roo", "description": "Site with recorded Maya inscriptions.", "acronym": "COB", "_entity_id": "6e076ba5-b830-4454-aa7a-64a10b8343f3"}}, {"type": "Feature", "geometry": {"type": "Point", "coordinates": [-93.201341, 18.28001]}, "properties": {"name": "Comalcalco", "culture": "Maya", "layer": "maya-inscriptions", "country": "Mexiko, Tabasco", "description": "Site with recorded Maya inscriptions.", "acronym": "CML", "_entity_id": "26c9ae4d-c48f-4aa8-9ae9-06083ae07bc1"}}, {"type": "Feature", "geometry": {"type": "Point", "coordinates": [-89.141233, 14.837622]}, "properties": {"name": "Copan", "culture": "Maya", "layer": "maya-inscriptions", "country": "Honduras, Cop\u00e1n", "description": "Site with recorded Maya inscriptions.", "acronym": "CPN", "_entity_id": "8122eeca-59ae-4e7a-8790-99d7654f8e62"}}, {"type": "Feature", "geometry": {"type": "Point", "coordinates": [-90.00454, 16.89534]}, "properties": {"name": "Cueva de Galon", "culture": "Maya", "layer": "maya-inscriptions", "country": "Guatemala, Pet\u00e9n", "description": "Site with recorded Maya inscriptions. Also known as: Cueva de las Pinturas = Cobanerita", "acronym": "CVG", "alt_name": "Cueva de las Pinturas = Cobanerita", "_entity_id": "40044547-89a5-49fd-998d-c5b7724be2ff"}}, {"type": "Feature", "geometry": {"type": "Point", "coordinates": [-89.277256, 18.253351]}, "properties": {"name": "Cueva de la Virgencita", "culture": "Maya", "layer": "maya-inscriptions", "country": "Mexiko, Campeche", "description": "Site with recorded Maya inscriptions.", "_entity_id": "cd69311b-a490-403e-adcd-d9b2bcb4ba20"}}, {"type": "Feature", "geometry": {"type": "Point", "coordinates": [-89.059982, 17.01805]}, "properties": {"name": "Cuychen", "culture": "Maya", "layer": "maya-inscriptions", "country": "Belize, Cayo", "description": "Site with recorded Maya inscriptions.", "acronym": "CUY", "_entity_id": "cbd12ec1-bc0b-4dd8-94c4-109f2eb40632"}}, {"type": "Feature", "geometry": {"type": "Point", "coordinates": [-90.981059, 16.798796]}, "properties": {"name": "Dos Caobas", "culture": "Maya", "layer": "maya-inscriptions", "country": "Mexiko, Chiapas", "description": "Site with recorded Maya inscriptions.", "acronym": "DCB", "_entity_id": "7f9b5ac9-5ae1-472e-9c91-0f07af99fa99"}}, {"type": "Feature", "geometry": {"type": "Point", "coordinates": [-90.29583, 16.44583]}, "properties": {"name": "Dos Pilas", "culture": "Maya", "layer": "maya-inscriptions", "country": "Guatemala, Pet\u00e9n", "description": "Site with recorded Maya inscriptions. Also known as: Dos Pozos", "acronym": "DPL", "alt_name": "Dos Pozos", "_entity_id": "f372a636-d0f6-42be-a072-37422e5ab567"}}, {"type": "Feature", "geometry": {"type": "Point", "coordinates": [-89.910491, 19.693113]}, "properties": {"name": "Dzehkabtun", "culture": "Maya", "layer": "maya-inscriptions", "country": "Mexiko, Campeche", "description": "Site with recorded Maya inscriptions.", "acronym": "DZK", "_entity_id": "a196717a-0a6e-4d97-9c1d-dd1947fed509"}}, {"type": "Feature", "geometry": {"type": "Point", "coordinates": [-89.596431, 21.091357]}, "properties": {"name": "Dzibilchaltun", "culture": "Maya", "layer": "maya-inscriptions", "country": "Mexiko, Yucat\u00e1n", "description": "Site with recorded Maya inscriptions.", "acronym": "DBC", "_entity_id": "c8130a60-9ca7-4f90-8423-6092283f505e"}}, {"type": "Feature", "geometry": {"type": "Point", "coordinates": [-89.594867, 19.578209]}, "properties": {"name": "Dzibilnocac", "culture": "Maya", "layer": "maya-inscriptions", "country": "Mexiko, Campeche", "description": "Site with recorded Maya inscriptions.", "acronym": "DBN", "_entity_id": "6dcde0a2-a626-4bde-9101-19871624b8bc"}}, {"type": "Feature", "geometry": {"type": "Point", "coordinates": [-88.92994, 21.28144]}, "properties": {"name": "Dzilam", "culture": "Maya", "layer": "maya-inscriptions", "country": "Mexiko, Yucat\u00e1n", "description": "Site with recorded Maya inscriptions. Also known as: Dzilam Gonzalez", "acronym": "DZL", "alt_name": "Dzilam Gonzalez", "_entity_id": "e628498b-1ec0-42ea-8f0a-a6f13b489e97"}}, {"type": "Feature", "geometry": {"type": "Point", "coordinates": [-88.883333, 16.75]}, "properties": {"name": "Eduardo Quiroz Cave", "culture": "Maya", "layer": "maya-inscriptions", "country": "Belize, Cayo", "description": "Site with recorded Maya inscriptions.", "_entity_id": "a4037707-10ca-4ad9-a0f1-c51b47650678"}}, {"type": "Feature", "geometry": {"type": "Point", "coordinates": [-90.230109, 19.597036]}, "properties": {"name": "Edzna", "culture": "Maya", "layer": "maya-inscriptions", "country": "Mexiko, Campeche", "description": "Site with recorded Maya inscriptions. Also known as: Etzna", "acronym": "ETZ", "alt_name": "Etzna", "_entity_id": "afb9e819-c0b4-41c6-bd55-ea7363625a97"}}, {"type": "Feature", "geometry": {"type": "Point", "coordinates": [-88.136312, 20.890692]}, "properties": {"name": "Ek Balam", "culture": "Maya", "layer": "maya-inscriptions", "country": "Mexiko, Yucat\u00e1n", "description": "Site with recorded Maya inscriptions. Also known as: Ek' Balam = Ek' B'ahlam = Ekbalam", "acronym": "EKB", "alt_name": "Ek' Balam = Ek' B'ahlam = Ekbalam", "_entity_id": "5f9d32fd-e735-4a07-9207-5f781b47e004"}}, {"type": "Feature", "geometry": {"type": "Point", "coordinates": [-88.80487, 15.103761]}, "properties": {"name": "Abra, El", "culture": "Maya", "layer": "maya-inscriptions", "country": "Honduras, Cop\u00e1n", "description": "Site with recorded Maya inscriptions.", "acronym": "ABR", "_entity_id": "51c9be3e-9308-4016-acf5-18aff9d0da07"}}, {"type": "Feature", "geometry": {"type": "Point", "coordinates": [-91.82478, 16.5344]}, "properties": {"name": "Amparo, El", "culture": "Maya", "layer": "maya-inscriptions", "country": "Mexiko, Chiapas", "description": "Site with recorded Maya inscriptions.", "acronym": "AMP", "_entity_id": "89b93b44-d3c8-4c2e-a33e-697fc004dd98"}}, {"type": "Feature", "geometry": {"type": "Point", "coordinates": [-89.46, 16.77167]}, "properties": {"name": "Camalote Dolores, El", "culture": "Maya", "layer": "maya-inscriptions", "country": "Guatemala, Pet\u00e9n", "description": "Site with recorded Maya inscriptions. Also known as: El Camalote = El Camalote/Dolores", "acronym": "CAD", "alt_name": "El Camalote = El Camalote/Dolores", "_entity_id": "0fdc0f4d-f896-4d5e-83e8-fee6bdc75ef5"}}, {"type": "Feature", "geometry": {"type": "Point", "coordinates": [-91.21247, 17.06436]}, "properties": {"name": "Cayo, El", "culture": "Maya", "layer": "maya-inscriptions", "country": "Mexiko, Chiapas", "description": "Site with recorded Maya inscriptions.", "acronym": "CAY", "_entity_id": "495277a1-9134-4f6f-8b45-95be07cf4b1a"}}, {"type": "Feature", "geometry": {"type": "Point", "coordinates": [-91.11824, 16.95522]}, "properties": {"name": "Chicozapote, El", "culture": "Maya", "layer": "maya-inscriptions", "country": "Mexiko, Chiapas", "description": "Site with recorded Maya inscriptions.", "acronym": "CZP", "_entity_id": "93bfec5f-41fd-41ec-8d91-bcad1d71f0ac"}}, {"type": "Feature", "geometry": {"type": "Point", "coordinates": [-89.560915, 16.813609]}, "properties": {"name": "Chilonche, El", "culture": "Maya", "layer": "maya-inscriptions", "country": "Guatemala, Pet\u00e9n", "description": "Site with recorded Maya inscriptions. Also known as: Chilonche", "acronym": "CHT", "alt_name": "Chilonche", "_entity_id": "794d1f39-c3ce-4022-aa18-a4a4e30afc32"}}, {"type": "Feature", "geometry": {"type": "Point", "coordinates": [-90.574333, 16.642167]}, "properties": {"name": "Chorro, El", "culture": "Maya", "layer": "maya-inscriptions", "country": "Guatemala, Pet\u00e9n", "description": "Site with recorded Maya inscriptions. Also known as: San Lucas = El Pato = La Armenia", "acronym": "CRO", "alt_name": "San Lucas = El Pato = La Armenia", "_entity_id": "3eff62b3-29ae-4dc9-a0ac-00645f216f63"}}, {"type": "Feature", "geometry": {"type": "Point", "coordinates": [-89.562778, 17.273611]}, "properties": {"name": "Encanto, El", "culture": "Maya", "layer": "maya-inscriptions", "country": "Guatemala, Pet\u00e9n", "description": "Site with recorded Maya inscriptions.", "acronym": "ENC", "_entity_id": "1f8f51ff-0dff-4276-8a34-07e8979e133f"}}, {"type": "Feature", "geometry": {"type": "Point", "coordinates": [-90.227732, 16.425734]}, "properties": {"name": "Excavado, El", "culture": "Maya", "layer": "maya-inscriptions", "country": "Guatemala, Pet\u00e9n", "description": "Site with recorded Maya inscriptions.", "acronym": "EXC", "_entity_id": "eec3b49d-f37c-438a-918d-01331e481bde"}}, {"type": "Feature", "geometry": {"type": "Point", "coordinates": [-89.48325, 17.827556]}, "properties": {"name": "Gallinero, El", "culture": "Maya", "layer": "maya-inscriptions", "country": "Mexiko, Campeche", "description": "Site with recorded Maya inscriptions.", "acronym": "GAL", "_entity_id": "b15d1e0a-dd12-4d5a-a255-329382a646dc"}}, {"type": "Feature", "geometry": {"type": "Point", "coordinates": [-89.266667, 17.981667]}, "properties": {"name": "Mameyal, El", "culture": "Maya", "layer": "maya-inscriptions", "country": "Mexiko, Campeche", "description": "Site with recorded Maya inscriptions.", "acronym": "MAM", "_entity_id": "a92e1227-cbe4-4d24-a012-f2c3487a074f"}}, {"type": "Feature", "geometry": {"type": "Point", "coordinates": [-89.43583, 17.69057]}, "properties": {"name": "Manantial, El", "culture": "Maya", "layer": "maya-inscriptions", "country": "Guatemala, Pet\u00e9n", "description": "Site with recorded Maya inscriptions. Also known as: Corosal = Corozal = El Tablero = Ch'anal", "acronym": "MAN", "alt_name": "Corosal = Corozal = El Tablero = Ch'anal", "_entity_id": "b130a36f-4e39-4d40-9d45-2968f6da93ab"}}, {"type": "Feature", "geometry": {"type": "Point", "coordinates": [-86.803912, 21.211155]}, "properties": {"name": "Meco, El", "culture": "Maya", "layer": "maya-inscriptions", "country": "Mexiko, Quintana Roo", "description": "Site with recorded Maya inscriptions.", "acronym": "MEC", "_entity_id": "fb6926e9-55b0-4ac7-bb82-4fc1399754b3"}}, {"type": "Feature", "geometry": {"type": "Point", "coordinates": [-89.92088, 17.756111]}, "properties": {"name": "Mirador, El", "culture": "Maya", "layer": "maya-inscriptions", "country": "Guatemala, Pet\u00e9n", "description": "Site with recorded Maya inscriptions.", "acronym": "MRD", "_entity_id": "4edaa7ff-138c-40d1-b4c1-42ab4d1de003"}}, {"type": "Feature", "geometry": {"type": "Point", "coordinates": [-90.57001, 16.472121]}, "properties": {"name": "Pabell\u00c3\u00b3n, El", "culture": "Maya", "layer": "maya-inscriptions", "country": "Mexiko, Chiapas", "description": "Site with recorded Maya inscriptions.", "acronym": "PAB", "_entity_id": "885d2ffa-252e-460d-851f-ffe993bc6e98"}}, {"type": "Feature", "geometry": {"type": "Point", "coordinates": [-89.337349, 18.077787]}, "properties": {"name": "Palmar, El", "culture": "Maya", "layer": "maya-inscriptions", "country": "Mexiko, Campeche", "description": "Site with recorded Maya inscriptions.", "acronym": "PLM", "_entity_id": "1cc7bfb7-f672-4dab-a124-0f3865eba144"}}, {"type": "Feature", "geometry": {"type": "Point", "coordinates": [-90.35578, 17.26606]}, "properties": {"name": "Peru, El", "culture": "Maya", "layer": "maya-inscriptions", "country": "Guatemala, Pet\u00e9n", "description": "Site with recorded Maya inscriptions. Also known as: Waka'", "acronym": "PRU", "alt_name": "Waka'", "_entity_id": "316121f3-e12b-4dfd-81a7-ac20296a4e21"}}, {"type": "Feature", "geometry": {"type": "Point", "coordinates": [-90.26079, 15.04745]}, "properties": {"name": "Port\u00c3\u00b3n, El", "culture": "Maya", "layer": "maya-inscriptions", "country": "Guatemala, Baja Verapaz", "description": "Site with recorded Maya inscriptions.", "acronym": "PRT", "_entity_id": "5a6de95e-7cf3-4a6f-9557-150bbff38262"}}, {"type": "Feature", "geometry": {"type": "Point", "coordinates": [-92.328758, 17.455145]}, "properties": {"name": "Porvenir, El", "culture": "Maya", "layer": "maya-inscriptions", "country": "Mexiko, Chiapas", "description": "Site with recorded Maya inscriptions.", "acronym": "PVR", "_entity_id": "cb464099-ea15-49a7-ab7c-15dabf8b7ada"}}, {"type": "Feature", "geometry": {"type": "Point", "coordinates": [-88.791041, 15.110079]}, "properties": {"name": "Puente, El", "culture": "Maya", "layer": "maya-inscriptions", "country": "Honduras, Cop\u00e1n", "description": "Site with recorded Maya inscriptions.", "acronym": "PUT", "_entity_id": "457d785d-71be-4480-8661-c3c2e65fef83"}}, {"type": "Feature", "geometry": {"type": "Point", "coordinates": [-90.449167, 16.844444]}, "properties": {"name": "Reinado, El", "culture": "Maya", "layer": "maya-inscriptions", "country": "Guatemala, Pet\u00e9n", "description": "Site with recorded Maya inscriptions. Also known as: Ni'tuunal", "alt_name": "Ni'tuunal", "_entity_id": "cfe7fa41-42b9-4d25-a52c-afe384d076b2"}}, {"type": "Feature", "geometry": {"type": "Point", "coordinates": [-88.786667, 18.771389]}, "properties": {"name": "Resbalon, El", "culture": "Maya", "layer": "maya-inscriptions", "country": "Mexiko, Quintana Roo", "description": "Site with recorded Maya inscriptions.", "acronym": "RSB", "_entity_id": "944170eb-9b2d-4166-a9cf-811227faf0ea"}}, {"type": "Feature", "geometry": {"type": "Point", "coordinates": [-92.261839, 17.523793]}, "properties": {"name": "Retiro, El", "culture": "Maya", "layer": "maya-inscriptions", "country": "Mexiko, Chiapas", "description": "Site with recorded Maya inscriptions.", "acronym": "RTR", "_entity_id": "3b7c54c0-8b8b-4ba5-a4c8-7d946e8404b6"}}, {"type": "Feature", "geometry": {"type": "Point", "coordinates": [-86.7813, 21.061616]}, "properties": {"name": "Rey, El", "culture": "Maya", "layer": "maya-inscriptions", "country": "Mexiko, Quintana Roo", "description": "Site with recorded Maya inscriptions.", "acronym": "REY", "_entity_id": "15d59838-f9aa-4430-aaf8-1fa6ce47601f"}}, {"type": "Feature", "geometry": {"type": "Point", "coordinates": [-90.105057, 20.147173]}, "properties": {"name": "Rosal, El", "culture": "Maya", "layer": "maya-inscriptions", "country": "Mexiko, Campeche", "description": "Site with recorded Maya inscriptions.", "acronym": "RSL", "_entity_id": "e31db0ed-7852-4c9e-bad5-a6d9ec0416fd"}}, {"type": "Feature", "geometry": {"type": "Point", "coordinates": [-89.78472, 19.49917]}, "properties": {"name": "Tabasque\u00c3\u00b1o, El", "culture": "Maya", "layer": "maya-inscriptions", "country": "Mexiko, Campeche", "description": "Site with recorded Maya inscriptions.", "acronym": "TBS", "_entity_id": "6f207620-a6a2-43ac-8b4b-c8592db4b5ed"}}, {"type": "Feature", "geometry": {"type": "Point", "coordinates": [-89.611667, 17.061667]}, "properties": {"name": "Temblor, El", "culture": "Maya", "layer": "maya-inscriptions", "country": "Guatemala, Pet\u00e9n", "description": "Site with recorded Maya inscriptions.", "acronym": "TMB", "_entity_id": "f05e28f5-fef0-46ad-8af9-8b4052589e91"}}, {"type": "Feature", "geometry": {"type": "Point", "coordinates": [-92.569127, 17.686038]}, "properties": {"name": "Tortuguero, El", "culture": "Maya", "layer": "maya-inscriptions", "country": "Mexiko, Tabasco", "description": "Site with recorded Maya inscriptions.", "acronym": "TRT", "_entity_id": "9bcaf3f0-5719-4234-a6c7-5ee82f3336c5"}}, {"type": "Feature", "geometry": {"type": "Point", "coordinates": [-89.86694, 18.32667]}, "properties": {"name": "Zacatal, El", "culture": "Maya", "layer": "maya-inscriptions", "country": "Mexiko, Campeche", "description": "Site with recorded Maya inscriptions.", "_entity_id": "ff65dd23-136b-4259-bea8-62df43adc445"}}, {"type": "Feature", "geometry": {"type": "Point", "coordinates": [-89.64349, 17.02105]}, "properties": {"name": "Zapote, El", "culture": "Maya", "layer": "maya-inscriptions", "country": "Guatemala, Pet\u00e9n", "description": "Site with recorded Maya inscriptions.", "acronym": "ZAP", "_entity_id": "c938e856-c021-44b5-b3d1-3b93b448b787"}}, {"type": "Feature", "geometry": {"type": "Point", "coordinates": [-89.82155, 17.23372]}, "properties": {"name": "Zotz, El", "culture": "Maya", "layer": "maya-inscriptions", "country": "Guatemala, Pet\u00e9n", "description": "Site with recorded Maya inscriptions. Also known as: Xinoxult\u00c3\u00ban = Dos Aguadas = El Diablo = El Sotz", "acronym": "ZTZ", "alt_name": "Xinoxult\u00c3\u00ban = Dos Aguadas = El Diablo = El Sotz", "_entity_id": "f65e9ec9-b11e-48d7-a283-3c980129ab6a"}}, {"type": "Feature", "geometry": {"type": "Point", "coordinates": [-89.891576, 16.930194]}, "properties": {"name": "Flores", "culture": "Maya", "layer": "maya-inscriptions", "country": "Guatemala, Pet\u00e9n", "description": "Site with recorded Maya inscriptions. Also known as: Noj Peten", "acronym": "FLS", "alt_name": "Noj Peten", "_entity_id": "8fbf413e-7f47-4bf0-b69e-dba203a7b9e0"}}, {"type": "Feature", "geometry": {"type": "Point", "coordinates": [-89.692545, 20.805382]}, "properties": {"name": "Hacienda Hotzuc", "culture": "Maya", "layer": "maya-inscriptions", "country": "Mexiko, Yucat\u00e1n", "description": "Site with recorded Maya inscriptions. Also known as: Hotzuc", "acronym": "HTZ", "alt_name": "Hotzuc", "_entity_id": "655e8592-7a5a-4902-88de-a14fc25145dc"}}, {"type": "Feature", "geometry": {"type": "Point", "coordinates": [-88.536227, 20.690021]}, "properties": {"name": "Halakal", "culture": "Maya", "layer": "maya-inscriptions", "country": "Mexiko, Yucat\u00e1n", "description": "Site with recorded Maya inscriptions.", "acronym": "HLK", "_entity_id": "a7351bb9-9942-468b-8600-7223a9ef1fdd"}}, {"type": "Feature", "geometry": {"type": "Point", "coordinates": [-90.48769, 19.54863]}, "properties": {"name": "Hobomo", "culture": "Maya", "layer": "maya-inscriptions", "country": "Mexiko, Campeche", "description": "Site with recorded Maya inscriptions. Also known as: Xobomo", "acronym": "HBM", "alt_name": "Xobomo", "_entity_id": "f00e3d80-2ef7-4788-a146-5cb2ed133e8b"}}, {"type": "Feature", "geometry": {"type": "Point", "coordinates": [-89.770851, 19.408825]}, "properties": {"name": "Hochob", "culture": "Maya", "layer": "maya-inscriptions", "country": "Mexiko, Campeche", "description": "Site with recorded Maya inscriptions.", "acronym": "HCH", "_entity_id": "592fe2e6-23cb-4f78-bccc-148e7a259da9"}}, {"type": "Feature", "geometry": {"type": "Point", "coordinates": [-89.27306, 17.31194]}, "properties": {"name": "Holmul", "culture": "Maya", "layer": "maya-inscriptions", "country": "Guatemala, Pet\u00e9n", "description": "Site with recorded Maya inscriptions. Also known as: La Riverita", "acronym": "HLM", "alt_name": "La Riverita", "_entity_id": "bb7fa082-aa56-42f2-9193-1e07c3a8d530"}}, {"type": "Feature", "geometry": {"type": "Point", "coordinates": [-89.493056, 18.409722]}, "properties": {"name": "Hormiguero", "culture": "Maya", "layer": "maya-inscriptions", "country": "Mexiko, Campeche", "description": "Site with recorded Maya inscriptions.", "acronym": "HRM", "_entity_id": "632253c4-8d2b-4cf8-b135-6ec694bcd08e"}}, {"type": "Feature", "geometry": {"type": "Point", "coordinates": [-90.028333, 17.095278]}, "properties": {"name": "Huacutal", "culture": "Maya", "layer": "maya-inscriptions", "country": "Guatemala, Pet\u00e9n", "description": "Site with recorded Maya inscriptions. Also known as: Aguacatal", "acronym": "HUA", "alt_name": "Aguacatal", "_entity_id": "6abeb4f6-2674-4e78-a5bb-5063d83c9702"}}, {"type": "Feature", "geometry": {"type": "Point", "coordinates": [-90.319565, 15.677686]}, "properties": {"name": "Hun Nal Ye", "culture": "Maya", "layer": "maya-inscriptions", "country": "Guatemala, Alta Verapaz", "description": "Site with recorded Maya inscriptions.", "_entity_id": "e97cb1b3-290e-415e-a2a6-3e7c780898bc"}}, {"type": "Feature", "geometry": {"type": "Point", "coordinates": [-89.588195, 20.122131]}, "properties": {"name": "Huntichmul", "culture": "Maya", "layer": "maya-inscriptions", "country": "Mexiko, Yucat\u00e1n", "description": "Site with recorded Maya inscriptions. Also known as: Huntichmul I", "acronym": "HNT", "alt_name": "Huntichmul I", "_entity_id": "46c31654-b0c1-4d6f-a957-8a21dcc46cc2"}}, {"type": "Feature", "geometry": {"type": "Point", "coordinates": [-88.38127, 20.857557]}, "properties": {"name": "IchmulIchmul de Morley = Kumche", "culture": "Maya", "layer": "maya-inscriptions", "country": "Mexiko, Yucat\u00e1n", "description": "Site with recorded Maya inscriptions.", "acronym": "ICL", "_entity_id": "efa340b0-0256-42eb-9d98-5766fc60d8c5"}}, {"type": "Feature", "geometry": {"type": "Point", "coordinates": [-88.814352, 20.614311]}, "properties": {"name": "IkilIki", "culture": "Maya", "layer": "maya-inscriptions", "country": "Mexiko, Yucat\u00e1n", "description": "Site with recorded Maya inscriptions.", "acronym": "IKL", "_entity_id": "82f3e88f-b689-40d5-8545-375e042d12e2"}}, {"type": "Feature", "geometry": {"type": "Point", "coordinates": [-90.466667, 16.566667]}, "properties": {"name": "Itzan", "culture": "Maya", "layer": "maya-inscriptions", "country": "Guatemala, Pet\u00e9n", "description": "Site with recorded Maya inscriptions.", "acronym": "ITN", "_entity_id": "83dfb6e0-3f05-4925-baff-2dd80cead218"}}, {"type": "Feature", "geometry": {"type": "Point", "coordinates": [-89.7281, 20.01773]}, "properties": {"name": "Itzimte-Bolonchen", "culture": "Maya", "layer": "maya-inscriptions", "country": "Mexiko, Campeche", "description": "Site with recorded Maya inscriptions. Also known as: Itzimte = Bolonchen", "acronym": "ITB", "alt_name": "Itzimte = Bolonchen", "_entity_id": "59beef8a-24b5-4723-b888-e5ae0ee18efb"}}, {"type": "Feature", "geometry": {"type": "Point", "coordinates": [-89.409568, 16.573896]}, "properties": {"name": "Ixkun", "culture": "Maya", "layer": "maya-inscriptions", "country": "Guatemala, Pet\u00e9n", "description": "Site with recorded Maya inscriptions.", "acronym": "IXK", "_entity_id": "8cfe08a0-8bc4-455f-82b5-44e427f04923"}}, {"type": "Feature", "geometry": {"type": "Point", "coordinates": [-89.68702, 16.97843]}, "properties": {"name": "Ixlu", "culture": "Maya", "layer": "maya-inscriptions", "country": "Guatemala, Pet\u00e9n", "description": "Site with recorded Maya inscriptions.", "acronym": "IXL", "_entity_id": "02185bc6-dd0d-40d6-b116-33d2684db2af"}}, {"type": "Feature", "geometry": {"type": "Point", "coordinates": [-89.395934, 16.510148]}, "properties": {"name": "Ixtonton", "culture": "Maya", "layer": "maya-inscriptions", "country": "Guatemala, Pet\u00e9n", "description": "Site with recorded Maya inscriptions.", "acronym": "IXT", "_entity_id": "64c0af3e-de57-46f9-9d7d-0b25af8345c4"}}, {"type": "Feature", "geometry": {"type": "Point", "coordinates": [-89.478321, 16.472963]}, "properties": {"name": "Ixtutz", "culture": "Maya", "layer": "maya-inscriptions", "country": "Guatemala, Pet\u00e9n", "description": "Site with recorded Maya inscriptions.", "acronym": "IXZ", "_entity_id": "f4e5fa24-ee02-4fd1-8866-4e83e486b19e"}}, {"type": "Feature", "geometry": {"type": "Point", "coordinates": [-90.486523, 20.209341]}, "properties": {"name": "Jaina", "culture": "Maya", "layer": "maya-inscriptions", "country": "Mexiko, Campeche", "description": "Site with recorded Maya inscriptions. Also known as: Island of Jaina = Isla de Jaina", "acronym": "JAI", "alt_name": "Island of Jaina = Isla de Jaina", "_entity_id": "cc434f1d-e935-4b69-b995-e1db17f3374e"}}, {"type": "Feature", "geometry": {"type": "Point", "coordinates": [-89.611944, 17.2825]}, "properties": {"name": "Jimbal", "culture": "Maya", "layer": "maya-inscriptions", "country": "Guatemala, Pet\u00e9n", "description": "Site with recorded Maya inscriptions. Also known as: Bambunal", "acronym": "JMB", "alt_name": "Bambunal", "_entity_id": "bb75bf10-c7a3-41c0-94be-c8e4372652a7"}}, {"type": "Feature", "geometry": {"type": "Point", "coordinates": [-92.321555, 17.351417]}, "properties": {"name": "Jolja", "culture": "Maya", "layer": "maya-inscriptions", "country": "Mexiko, Chiapas", "description": "Site with recorded Maya inscriptions. Also known as: Ixtelha = Cueva de Jolja = Joloniel = Jolja'", "acronym": "JOL", "alt_name": "Ixtelha = Cueva de Jolja = Joloniel = Jolja'", "_entity_id": "cbfad640-02d6-4637-9e42-91d36c0c8862"}}, {"type": "Feature", "geometry": {"type": "Point", "coordinates": [-88.72972, 17.81611]}, "properties": {"name": "Ka'Kabish", "culture": "Maya", "layer": "maya-inscriptions", "country": "Belize, Orange Walk", "description": "Site with recorded Maya inscriptions.", "_entity_id": "a99d6100-dcd6-4bb0-adfe-cbfd6f023e60"}}, {"type": "Feature", "geometry": {"type": "Point", "coordinates": [-89.647778, 20.248921]}, "properties": {"name": "Kabah", "culture": "Maya", "layer": "maya-inscriptions", "country": "Mexiko, Yucat\u00e1n", "description": "Site with recorded Maya inscriptions.", "acronym": "KAB", "_entity_id": "38ed1f49-1418-4b67-ac8c-86b03827dd7b"}}, {"type": "Feature", "geometry": {"type": "Point", "coordinates": [-90.54847, 14.631257]}, "properties": {"name": "Kaminaljuyu", "culture": "Maya", "layer": "maya-inscriptions", "country": "Guatemala, Guatemala", "description": "Site with recorded Maya inscriptions.", "acronym": "KJU", "_entity_id": "0dd5e408-8b3d-46bb-8bb6-f0affb382fb3"}}, {"type": "Feature", "geometry": {"type": "Point", "coordinates": [-90.14098, 19.66817]}, "properties": {"name": "Kayal", "culture": "Maya", "layer": "maya-inscriptions", "country": "Mexiko, Campeche", "description": "Site with recorded Maya inscriptions.", "acronym": "KYL", "_entity_id": "67a7f894-ea79-4009-9b24-80738c911295"}}, {"type": "Feature", "geometry": {"type": "Point", "coordinates": [-88.366402, 16.822541]}, "properties": {"name": "Kendal", "culture": "Maya", "layer": "maya-inscriptions", "country": "Belize, Stann Creek", "description": "Site with recorded Maya inscriptions.", "acronym": "KEN", "_entity_id": "f58ec017-77f2-4f3e-ac3c-64aac0d7263f"}}, {"type": "Feature", "geometry": {"type": "Point", "coordinates": [-88.46698, 17.996041]}, "properties": {"name": "Kichpanha", "culture": "Maya", "layer": "maya-inscriptions", "country": "Belize, Orange Walk", "description": "Site with recorded Maya inscriptions.", "acronym": "KIP", "_entity_id": "0081081d-0b8f-46b7-a83b-038ed0979e11"}}, {"type": "Feature", "geometry": {"type": "Point", "coordinates": [-89.245351, 17.69965]}, "properties": {"name": "Kinal", "culture": "Maya", "layer": "maya-inscriptions", "country": "Guatemala, Pet\u00e9n", "description": "Site with recorded Maya inscriptions. Also known as: Las Ruinas", "acronym": "KNL", "alt_name": "Las Ruinas", "_entity_id": "a881b834-6fb0-47aa-ac75-8edbd835dd2b"}}, {"type": "Feature", "geometry": {"type": "Point", "coordinates": [-89.551165, 20.096485]}, "properties": {"name": "Kiuic", "culture": "Maya", "layer": "maya-inscriptions", "country": "Mexiko, Yucat\u00e1n", "description": "Site with recorded Maya inscriptions. Also known as: Kiwick = Kewick", "acronym": "KUC", "alt_name": "Kiwick = Kewick", "_entity_id": "42353bca-409b-4494-9c01-ed38f418e862"}}, {"type": "Feature", "geometry": {"type": "Point", "coordinates": [-88.79079, 18.41966]}, "properties": {"name": "Kohunlich", "culture": "Maya", "layer": "maya-inscriptions", "country": "Mexiko, Quintana Roo", "description": "Site with recorded Maya inscriptions.", "acronym": "KOH", "_entity_id": "625e91ca-2053-4e75-8c5d-779debcfc0dd"}}, {"type": "Feature", "geometry": {"type": "Point", "coordinates": [-90.42417, 16.52944]}, "properties": {"name": "Amelia, La", "culture": "Maya", "layer": "maya-inscriptions", "country": "Guatemala, Pet\u00e9n", "description": "Site with recorded Maya inscriptions.", "acronym": "AML", "_entity_id": "f020375b-8b5d-4a4c-a51c-00c81837e48b"}}, {"type": "Feature", "geometry": {"type": "Point", "coordinates": [-90.372226, 17.519746]}, "properties": {"name": "Corona, La", "culture": "Maya", "layer": "maya-inscriptions", "country": "Guatemala, Pet\u00e9n", "description": "Site with recorded Maya inscriptions.", "acronym": "CRN", "_entity_id": "cfb1d338-49cc-42de-bdb0-745a885f5707"}}, {"type": "Feature", "geometry": {"type": "Point", "coordinates": [-90.811744, 17.229708]}, "properties": {"name": "Florida", "culture": "Maya", "layer": "maya-inscriptions", "country": "Guatemala, Pet\u00e9n", "description": "Site with recorded Maya inscriptions. Also known as: LaOcultun = La Florida-Namaan = El Naranjo-Frontera", "acronym": "FLD", "alt_name": "LaOcultun = La Florida-Namaan = El Naranjo-Frontera", "_entity_id": "953d0154-c662-46a5-a486-8c26a45fbd63"}}, {"type": "Feature", "geometry": {"type": "Point", "coordinates": [-89.28288, 17.59798]}, "properties": {"name": "Honradez", "culture": "Maya", "layer": "maya-inscriptions", "country": "Guatemala, Pet\u00e9n", "description": "Site with recorded Maya inscriptions. Also known as: LaCorozal\u00c3\u00b3n", "acronym": "HRZ", "alt_name": "LaCorozal\u00c3\u00b3n", "_entity_id": "40570c5d-48d5-4837-ada0-40b3b4eb1451"}}, {"type": "Feature", "geometry": {"type": "Point", "coordinates": [-90.568789, 17.23769]}, "properties": {"name": "Joyanca, La", "culture": "Maya", "layer": "maya-inscriptions", "country": "Guatemala, Pet\u00e9n", "description": "Site with recorded Maya inscriptions.", "acronym": "JOY", "_entity_id": "1db9376a-d128-4f03-b10a-9b1af87753cc"}}, {"type": "Feature", "geometry": {"type": "Point", "coordinates": [-90.227358, 16.037312]}, "properties": {"name": "Linterna", "culture": "Maya", "layer": "maya-inscriptions", "country": "Guatemala, Alta Verapaz", "description": "Site with recorded Maya inscriptions. Also known as: LaLa Linterna II", "acronym": "LTN", "alt_name": "LaLa Linterna II", "_entity_id": "1d05ccf8-f004-4f89-ad34-5481bb1c478e"}}, {"type": "Feature", "geometry": {"type": "Point", "coordinates": [-91.41003, 17.11178]}, "properties": {"name": "Mar, LaRabbit Stone", "culture": "Maya", "layer": "maya-inscriptions", "country": "Mexiko, Chiapas", "description": "Site with recorded Maya inscriptions.", "acronym": "MAR", "_entity_id": "39315679-317c-4ece-84d3-8d3dc2d990e6"}}, {"type": "Feature", "geometry": {"type": "Point", "coordinates": [-89.055833, 17.821111]}, "properties": {"name": "Milpa, La", "culture": "Maya", "layer": "maya-inscriptions", "country": "Belize, Orange Walk", "description": "Site with recorded Maya inscriptions.", "acronym": "MLP", "_entity_id": "900996e4-c773-4020-ae23-842f59f886f2"}}, {"type": "Feature", "geometry": {"type": "Point", "coordinates": [-89.988333, 17.208333]}, "properties": {"name": "Montura", "culture": "Maya", "layer": "maya-inscriptions", "country": "Guatemala, Pet\u00e9n", "description": "Site with recorded Maya inscriptions. Also known as: LaKinin = La Monturita", "acronym": "MTR", "alt_name": "LaKinin = La Monturita", "_entity_id": "1ca5e276-3d15-4815-959d-0d19fff65819"}}, {"type": "Feature", "geometry": {"type": "Point", "coordinates": [-89.612303, 18.219269]}, "properties": {"name": "Mu\u00c3\u00b1eca", "culture": "Maya", "layer": "maya-inscriptions", "country": "Mexiko, Campeche", "description": "Site with recorded Maya inscriptions. Also known as: LaXamantun = El Mirador = La Gran Parada", "acronym": "MCA", "alt_name": "LaXamantun = El Mirador = La Gran Parada", "_entity_id": "79caf79b-1a81-47ea-887b-996ea69d1f6e"}}, {"type": "Feature", "geometry": {"type": "Point", "coordinates": [-89.47767, 17.01617]}, "properties": {"name": "Naya, La", "culture": "Maya", "layer": "maya-inscriptions", "country": "Guatemala, Pet\u00e9n", "description": "Site with recorded Maya inscriptions.", "acronym": "NAY", "_entity_id": "5d768cfd-c63a-4787-a267-57fc1655030b"}}, {"type": "Feature", "geometry": {"type": "Point", "coordinates": [-91.055417, 16.990144]}, "properties": {"name": "Pasadita, La", "culture": "Maya", "layer": "maya-inscriptions", "country": "Guatemala, Pet\u00e9n", "description": "Site with recorded Maya inscriptions.", "acronym": "PSD", "_entity_id": "662fc547-7582-4b9a-8128-fd5563499bd3"}}, {"type": "Feature", "geometry": {"type": "Point", "coordinates": [-89.394, 17.109333]}, "properties": {"name": "Pochitoca, La", "culture": "Maya", "layer": "maya-inscriptions", "country": "Guatemala, Pet\u00e9n", "description": "Site with recorded Maya inscriptions.", "acronym": "PCT", "_entity_id": "9d6fbabf-bc33-4096-a058-3b3baf4c0751"}}, {"type": "Feature", "geometry": {"type": "Point", "coordinates": [-89.201877, 16.799541]}, "properties": {"name": "Rejolla", "culture": "Maya", "layer": "maya-inscriptions", "country": "Guatemala, Pet\u00e9n", "description": "Site with recorded Maya inscriptions. Also known as: LaLa Rejoya", "acronym": "REJ", "alt_name": "LaLa Rejoya", "_entity_id": "2ee42763-d654-43a1-bb22-29348ab8e2e3"}}, {"type": "Feature", "geometry": {"type": "Point", "coordinates": [-89.285166, 17.304166]}, "properties": {"name": "Sufricaya", "culture": "Maya", "layer": "maya-inscriptions", "country": "Guatemala, Pet\u00e9n", "description": "Site with recorded Maya inscriptions. Also known as: LaEl G\u00c3\u00bciro", "acronym": "SUF", "alt_name": "LaEl G\u00c3\u00bciro", "_entity_id": "fd5b4215-620d-45d2-9b55-edb140f1e816"}}, {"type": "Feature", "geometry": {"type": "Point", "coordinates": [-89.578687, 20.17246]}, "properties": {"name": "Labna", "culture": "Maya", "layer": "maya-inscriptions", "country": "Mexiko, Yucat\u00e1n", "description": "Site with recorded Maya inscriptions.", "acronym": "LAB", "_entity_id": "6a4d369c-867a-4dc8-ae9b-61229c77a751"}}, {"type": "Feature", "geometry": {"type": "Point", "coordinates": [-91.100146, 16.713757]}, "properties": {"name": "Lacanha", "culture": "Maya", "layer": "maya-inscriptions", "country": "Mexiko, Chiapas", "description": "Site with recorded Maya inscriptions. Also known as: Lacanja = Lacanha Kuna = Nak Balum Winik", "acronym": "LAC", "alt_name": "Lacanja = Lacanha Kuna = Nak Balum Winik", "_entity_id": "61e6ac80-8361-4dee-b884-9f8c61ba5941"}}, {"type": "Feature", "geometry": {"type": "Point", "coordinates": [-90.1855, 17.072833]}, "properties": {"name": "Laguna Perdida", "culture": "Maya", "layer": "maya-inscriptions", "country": "Guatemala, Pet\u00e9n", "description": "Site with recorded Maya inscriptions. Also known as: IILaguna Perdida", "acronym": "LGP", "alt_name": "IILaguna Perdida", "_entity_id": "64f1aa0a-7a4e-4af0-9787-8476c0e9b0ed"}}, {"type": "Feature", "geometry": {"type": "Point", "coordinates": [-88.65299, 17.76505]}, "properties": {"name": "Lamanai", "culture": "Maya", "layer": "maya-inscriptions", "country": "Belize, Orange Walk", "description": "Site with recorded Maya inscriptions.", "acronym": "LMN", "_entity_id": "a631e0cc-1d90-4510-abad-b7a2c9cdcfcf"}}, {"type": "Feature", "geometry": {"type": "Point", "coordinates": [-91.089809, 16.981835]}, "properties": {"name": "Lashtunich", "culture": "Maya", "layer": "maya-inscriptions", "country": "Guatemala, Pet\u00e9n", "description": "Site with recorded Maya inscriptions. Also known as: Laxtunich = Lamb Site = Site R", "acronym": "LTI", "alt_name": "Laxtunich = Lamb Site = Site R", "_entity_id": "5f795911-7652-4edb-a523-a88dd1419891"}}, {"type": "Feature", "geometry": {"type": "Point", "coordinates": [-89.45597, 20.25353]}, "properties": {"name": "Loltun", "culture": "Maya", "layer": "maya-inscriptions", "country": "Mexiko, Yucat\u00e1n", "description": "Site with recorded Maya inscriptions.", "acronym": "LOL", "_entity_id": "7350f303-4f4b-4996-b9ed-d295b2539e67"}}, {"type": "Feature", "geometry": {"type": "Point", "coordinates": [-89.20944, 17.98167]}, "properties": {"name": "Alacranes, Los", "culture": "Maya", "layer": "maya-inscriptions", "country": "Mexiko, Campeche", "description": "Site with recorded Maya inscriptions.", "acronym": "ALC", "_entity_id": "d2bb7100-1523-45b9-839a-cea2a7715563"}}, {"type": "Feature", "geometry": {"type": "Point", "coordinates": [-89.176769, 18.215362]}, "properties": {"name": "Angeles, Los", "culture": "Maya", "layer": "maya-inscriptions", "country": "Mexiko, Campeche", "description": "Site with recorded Maya inscriptions. Also known as: Los \u00c3\u0081ngeles", "alt_name": "Los \u00c3\u0081ngeles", "_entity_id": "39237668-fdec-4e64-ba9f-3b21e1c4725f"}}, {"type": "Feature", "geometry": {"type": "Point", "coordinates": [-88.959555, 16.282028]}, "properties": {"name": "Lubaantun", "culture": "Maya", "layer": "maya-inscriptions", "country": "Belize, Toledo", "description": "Site with recorded Maya inscriptions.", "acronym": "LBT", "_entity_id": "858d57b3-2e94-4af4-a89a-09f2783acc8b"}}, {"type": "Feature", "geometry": {"type": "Point", "coordinates": [-89.865615, 16.325373]}, "properties": {"name": "Machaquila", "culture": "Maya", "layer": "maya-inscriptions", "country": "Guatemala, Pet\u00e9n", "description": "Site with recorded Maya inscriptions.", "acronym": "MQL", "_entity_id": "02a1519c-2fb5-4f9b-a8a0-03dc6026173e"}}, {"type": "Feature", "geometry": {"type": "Point", "coordinates": [-89.460594, 20.629652]}, "properties": {"name": "Mayapan", "culture": "Maya", "layer": "maya-inscriptions", "country": "Mexiko, Yucat\u00e1n", "description": "Site with recorded Maya inscriptions.", "acronym": "MPN", "_entity_id": "bfd0c915-057c-4a0d-8cc8-8f0cd3744974"}}, {"type": "Feature", "geometry": {"type": "Point", "coordinates": [-89.314546, 17.816304]}, "properties": {"name": "Monumento 104Aguada Cancuen", "culture": "Maya", "layer": "maya-inscriptions", "country": "Mexiko, Campeche", "description": "Site with recorded Maya inscriptions.", "_entity_id": "67f2490b-cec5-4264-93be-aadf5f4d6896"}}, {"type": "Feature", "geometry": {"type": "Point", "coordinates": [-91.297661, 17.769255]}, "properties": {"name": "Moral", "culture": "Maya", "layer": "maya-inscriptions", "country": "Mexiko, Tabasco", "description": "Site with recorded Maya inscriptions. Also known as: Morales = Balancan = Balancan-Morales = Moral-Reforma = Acalan", "acronym": "MRL", "alt_name": "Morales = Balancan = Balancan-Morales = Moral-Reforma = Acalan", "_entity_id": "3575e930-4206-44f8-adbd-a24dae63b244"}}, {"type": "Feature", "geometry": {"type": "Point", "coordinates": [-89.90115, 17.026517]}, "properties": {"name": "Motul de San Jose", "culture": "Maya", "layer": "maya-inscriptions", "country": "Guatemala, Pet\u00e9n", "description": "Site with recorded Maya inscriptions. Also known as: Motul", "acronym": "MTL", "alt_name": "Motul", "_entity_id": "a4a9b328-b9f6-4765-8e2c-7a1aa67a37a2"}}, {"type": "Feature", "geometry": {"type": "Point", "coordinates": [-89.049382, 16.789217]}, "properties": {"name": "Mountain Cow", "culture": "Maya", "layer": "maya-inscriptions", "country": "Belize, Cayo", "description": "Site with recorded Maya inscriptions. Also known as: Tzimin Tunich = Tzimin Kax / Haatzcab Ceel = Hatzcab Ceel = Hatzcap Ceel / Cahal Cunil / Cahal Pichik", "acronym": "MCW", "alt_name": "Tzimin Tunich = Tzimin Kax / Haatzcab Ceel = Hatzcab Ceel = Hatzcap Ceel / Cahal Cunil / Cahal Pichik", "_entity_id": "afbaccd7-1a39-4e66-a980-40d97d60d4c6"}}, {"type": "Feature", "geometry": {"type": "Point", "coordinates": [-89.72847, 17.79405]}, "properties": {"name": "Naachtun", "culture": "Maya", "layer": "maya-inscriptions", "country": "Guatemala, Pet\u00e9n", "description": "Site with recorded Maya inscriptions. Also known as: Infiernon = La Ruinosa", "acronym": "NCT", "alt_name": "Infiernon = La Ruinosa", "_entity_id": "ae351101-5e31-46d3-9fa1-ec10850ade3c"}}, {"type": "Feature", "geometry": {"type": "Point", "coordinates": [-90.085833, 18.297222]}, "properties": {"name": "Nadzbeiltun", "culture": "Maya", "layer": "maya-inscriptions", "country": "Mexiko, Campeche", "description": "Site with recorded Maya inscriptions.", "_entity_id": "1cdc1c3c-b6f3-4a14-8d7c-a8a96ea9a4d6"}}, {"type": "Feature", "geometry": {"type": "Point", "coordinates": [-89.845908, 18.606966]}, "properties": {"name": "Nadzcaan", "culture": "Maya", "layer": "maya-inscriptions", "country": "Mexiko, Campeche", "description": "Site with recorded Maya inscriptions. Also known as: Nadz Caan = Nadzc\u00c3\u00a0an = Nadzca'an", "acronym": "NDZ", "alt_name": "Nadz Caan = Nadzc\u00c3\u00a0an = Nadzca'an", "_entity_id": "827a227e-6177-474a-b98e-8760bb77a818"}}, {"type": "Feature", "geometry": {"type": "Point", "coordinates": [-89.259722, 16.275556]}, "properties": {"name": "Naj Tunich", "culture": "Maya", "layer": "maya-inscriptions", "country": "Guatemala, Pet\u00e9n", "description": "Site with recorded Maya inscriptions. Also known as: Najtunich", "acronym": "NTN", "alt_name": "Najtunich", "_entity_id": "41014dca-1b58-4084-a54b-4d85a8b7f229"}}, {"type": "Feature", "geometry": {"type": "Point", "coordinates": [-89.835159, 17.679911]}, "properties": {"name": "Nakbe", "culture": "Maya", "layer": "maya-inscriptions", "country": "Guatemala, Pet\u00e9n", "description": "Site with recorded Maya inscriptions. Also known as: Zacatal", "acronym": "NKB", "alt_name": "Zacatal", "_entity_id": "70e90bd2-2222-4cd9-9244-8c6796537aa0"}}, {"type": "Feature", "geometry": {"type": "Point", "coordinates": [-89.40514, 17.175941]}, "properties": {"name": "Nakum", "culture": "Maya", "layer": "maya-inscriptions", "country": "Guatemala, Pet\u00e9n", "description": "Site with recorded Maya inscriptions. Also known as: Nacun = Nakcun = Nak\u00c3\u00bam", "acronym": "NKM", "alt_name": "Nacun = Nakcun = Nak\u00c3\u00bam", "_entity_id": "dd5aeaef-a19e-4e95-98cf-e1df7355bc21"}}, {"type": "Feature", "geometry": {"type": "Point", "coordinates": [-89.262047, 17.133511]}, "properties": {"name": "Naranjo", "culture": "Maya", "layer": "maya-inscriptions", "country": "Guatemala, Pet\u00e9n", "description": "Site with recorded Maya inscriptions. Also known as: Manantial = Naranjo Sa'al", "acronym": "NAR", "alt_name": "Manantial = Naranjo Sa'al", "_entity_id": "e141103c-154a-4c0c-abe5-10773ce96199"}}, {"type": "Feature", "geometry": {"type": "Point", "coordinates": [-88.824074, 16.321899]}, "properties": {"name": "Nim Li Punit", "culture": "Maya", "layer": "maya-inscriptions", "country": "Belize, Toledo", "description": "Site with recorded Maya inscriptions. Also known as: Nimli Punit", "acronym": "NMP", "alt_name": "Nimli Punit", "_entity_id": "74c76358-be9c-47f0-a93b-50812d5cd6ea"}}, {"type": "Feature", "geometry": {"type": "Point", "coordinates": [-88.584749, 18.217315]}, "properties": {"name": "Nohmul", "culture": "Maya", "layer": "maya-inscriptions", "country": "Belize, Orange Walk", "description": "Site with recorded Maya inscriptions.", "acronym": "NHM", "_entity_id": "3d2af0ba-1d3a-4ffa-95e7-cb1e8512e3fb"}}, {"type": "Feature", "geometry": {"type": "Point", "coordinates": [-89.70597, 20.31428]}, "properties": {"name": "Nohpat", "culture": "Maya", "layer": "maya-inscriptions", "country": "Mexiko, Yucat\u00e1n", "description": "Site with recorded Maya inscriptions.", "acronym": "NPT", "_entity_id": "0033b4f9-2f13-4243-80a6-66290d29935d"}}, {"type": "Feature", "geometry": {"type": "Point", "coordinates": [-91.154667, 16.855075]}, "properties": {"name": "Ojo de Agua", "culture": "Maya", "layer": "maya-inscriptions", "country": "Mexiko, Chiapas", "description": "Site with recorded Maya inscriptions. Also known as: Ojos de Agua", "acronym": "OAG", "alt_name": "Ojos de Agua", "_entity_id": "950b788f-8108-4201-9a18-8446118ae644"}}, {"type": "Feature", "geometry": {"type": "Point", "coordinates": [-89.250915, 17.940167]}, "properties": {"name": "Ojo de Agua", "culture": "Maya", "layer": "maya-inscriptions", "country": "Mexiko, Campeche", "description": "Site with recorded Maya inscriptions.", "acronym": "OJO", "_entity_id": "27f0fd1b-ce98-44a0-97c0-1137e73e7b7e"}}, {"type": "Feature", "geometry": {"type": "Point", "coordinates": [-88.459167, 19.965988]}, "properties": {"name": "Okop", "culture": "Maya", "layer": "maya-inscriptions", "country": "Mexiko, Quintana Roo", "description": "Site with recorded Maya inscriptions. Also known as: Yo'okop = La Aguada", "acronym": "OKP", "alt_name": "Yo'okop = La Aguada", "_entity_id": "dc076394-f455-4183-a57c-d354d6ef493a"}}, {"type": "Feature", "geometry": {"type": "Point", "coordinates": [-89.953492, 20.562377]}, "properties": {"name": "Oxkintok", "culture": "Maya", "layer": "maya-inscriptions", "country": "Mexiko, Yucat\u00e1n", "description": "Site with recorded Maya inscriptions.", "acronym": "OXK", "_entity_id": "08e63bb4-1380-4fab-90cb-9a2c90e8f4f0"}}, {"type": "Feature", "geometry": {"type": "Point", "coordinates": [-89.778381, 18.319755]}, "properties": {"name": "Oxpemul", "culture": "Maya", "layer": "maya-inscriptions", "country": "Mexiko, Campeche", "description": "Site with recorded Maya inscriptions.", "acronym": "OXP", "_entity_id": "d013d31b-5473-492b-8f68-39fb9689abe4"}}, {"type": "Feature", "geometry": {"type": "Point", "coordinates": [-88.99433, 17.09211]}, "properties": {"name": "Pacbitun", "culture": "Maya", "layer": "maya-inscriptions", "country": "Belize, Cayo", "description": "Site with recorded Maya inscriptions. Also known as: Pakbitun", "acronym": "PAC", "alt_name": "Pakbitun", "_entity_id": "886e618b-2d93-47d5-a4b4-b46ed06c6b6d"}}, {"type": "Feature", "geometry": {"type": "Point", "coordinates": [-92.046888, 17.483877]}, "properties": {"name": "Palenque", "culture": "Maya", "layer": "maya-inscriptions", "country": "Mexiko, Chiapas", "description": "Site with recorded Maya inscriptions. Also known as: Otulum", "acronym": "PAL", "alt_name": "Otulum", "_entity_id": "2e7236d3-8345-4fe0-b397-375a73ab1c8d"}}, {"type": "Feature", "geometry": {"type": "Point", "coordinates": [-89.308934, 18.425171]}, "properties": {"name": "Pasi\u00c3\u00b3n del Cristo", "culture": "Maya", "layer": "maya-inscriptions", "country": "Mexiko, Campeche", "description": "Site with recorded Maya inscriptions.", "acronym": "PCR", "_entity_id": "153c472f-fbef-4a0a-8e2a-c1468f2276f7"}}, {"type": "Feature", "geometry": {"type": "Point", "coordinates": [-92.010762, 16.890805]}, "properties": {"name": "Pestac", "culture": "Maya", "layer": "maya-inscriptions", "country": "Mexiko, Chiapas", "description": "Site with recorded Maya inscriptions.", "acronym": "PST", "_entity_id": "732c51b3-14b4-48e7-93a5-0b84b776d4ef"}}, {"type": "Feature", "geometry": {"type": "Point", "coordinates": [-91.260188, 17.168695]}, "properties": {"name": "Piedras Negras", "culture": "Maya", "layer": "maya-inscriptions", "country": "Guatemala, Pet\u00e9n", "description": "Site with recorded Maya inscriptions.", "acronym": "PNG", "_entity_id": "ec189909-92b1-4564-827d-8b381e961c53"}}, {"type": "Feature", "geometry": {"type": "Point", "coordinates": [-87.445515, 19.92694]}, "properties": {"name": "Pistolas", "culture": "Maya", "layer": "maya-inscriptions", "country": "Mexiko, Quintana Roo", "description": "Site with recorded Maya inscriptions.", "acronym": "PIT", "_entity_id": "84d69ed5-5e07-4d1f-aaa4-62b716635dea"}}, {"type": "Feature", "geometry": {"type": "Point", "coordinates": [-89.746794, 19.819349]}, "properties": {"name": "Pixoy", "culture": "Maya", "layer": "maya-inscriptions", "country": "Mexiko, Campeche", "description": "Site with recorded Maya inscriptions.", "acronym": "PIX", "_entity_id": "eb8732a8-f4b2-49ba-b70c-663d73c38c87"}}, {"type": "Feature", "geometry": {"type": "Point", "coordinates": [-91.279784, 16.784024]}, "properties": {"name": "Plan de AyutlaSak Tz'i'", "culture": "Maya", "layer": "maya-inscriptions", "country": "Mexiko, Chiapas", "description": "Site with recorded Maya inscriptions.", "acronym": "PAY", "_entity_id": "cba4f2d6-1031-49e8-91cc-c022c38b64b2"}}, {"type": "Feature", "geometry": {"type": "Point", "coordinates": [-87.08282, 20.61497]}, "properties": {"name": "Playa del Carmen", "culture": "Maya", "layer": "maya-inscriptions", "country": "Mexiko, Quintana Roo", "description": "Site with recorded Maya inscriptions.", "acronym": "PLC", "_entity_id": "91128e65-7b6d-430e-a82a-fca4088d5c9c"}}, {"type": "Feature", "geometry": {"type": "Point", "coordinates": [-89.2663, 18.38375]}, "properties": {"name": "Pok", "culture": "Maya", "layer": "maya-inscriptions", "country": "Mexiko, Campeche", "description": "Site with recorded Maya inscriptions.", "_entity_id": "70438d7d-bb4e-4f59-883b-9798fd04f166"}}, {"type": "Feature", "geometry": {"type": "Point", "coordinates": [-88.843382, 18.543005]}, "properties": {"name": "Pol Box", "culture": "Maya", "layer": "maya-inscriptions", "country": "Mexiko, Quintana Roo", "description": "Site with recorded Maya inscriptions.", "_entity_id": "03bb362f-1d01-4f3e-894e-a459f0ca4f26"}}, {"type": "Feature", "geometry": {"type": "Point", "coordinates": [-90.20833, 16.788889]}, "properties": {"name": "Polol", "culture": "Maya", "layer": "maya-inscriptions", "country": "Guatemala, Pet\u00e9n", "description": "Site with recorded Maya inscriptions.", "acronym": "POL", "_entity_id": "f7079661-4a4f-46a0-8f58-1cd97bd9ce2b"}}, {"type": "Feature", "geometry": {"type": "Point", "coordinates": [-88.374721, 16.989846]}, "properties": {"name": "Pomona", "culture": "Maya", "layer": "maya-inscriptions", "country": "Belize, Stann Creek", "description": "Site with recorded Maya inscriptions.", "acronym": "PMB", "_entity_id": "7d7eaa04-dbe0-43c9-81ca-9b45f12cfd61"}}, {"type": "Feature", "geometry": {"type": "Point", "coordinates": [-91.570211, 17.484629]}, "properties": {"name": "Pomona", "culture": "Maya", "layer": "maya-inscriptions", "country": "Mexiko, Tabasco", "description": "Site with recorded Maya inscriptions.", "acronym": "PMT", "_entity_id": "aa83dc3e-6913-4734-8922-942d6bf5f32e"}}, {"type": "Feature", "geometry": {"type": "Point", "coordinates": [-90.22544, 20.11094]}, "properties": {"name": "Pomuch", "culture": "Maya", "layer": "maya-inscriptions", "country": "Mexiko, Campeche", "description": "Site with recorded Maya inscriptions. Also known as: Pokmuch = Tixpokmuch", "acronym": "PMC", "alt_name": "Pokmuch = Tixpokmuch", "_entity_id": "d587eb72-1d74-4dc1-aae5-3db84c6b8b9d"}}, {"type": "Feature", "geometry": {"type": "Point", "coordinates": [-88.852032, 17.15418]}, "properties": {"name": "Pook's Hill", "culture": "Maya", "layer": "maya-inscriptions", "country": "Belize, Cayo", "description": "Site with recorded Maya inscriptions.", "acronym": "PKH", "_entity_id": "c14dafab-4d0d-43b7-8e6e-6d3f85488518"}}, {"type": "Feature", "geometry": {"type": "Point", "coordinates": [-88.633618, 20.581488]}, "properties": {"name": "PopolaPusil", "culture": "Maya", "layer": "maya-inscriptions", "country": "Mexiko, Yucat\u00e1n", "description": "Site with recorded Maya inscriptions.", "acronym": "PPL", "_entity_id": "298f5efe-e6c4-472a-a16d-5a7bd5916381"}}, {"type": "Feature", "geometry": {"type": "Point", "coordinates": [-89.41, 16.337587]}, "properties": {"name": "Poptun", "culture": "Maya", "layer": "maya-inscriptions", "country": "Guatemala, Pet\u00e9n", "description": "Site with recorded Maya inscriptions.", "acronym": "POP", "_entity_id": "faa4f9a3-b25e-4a63-aa4c-f3f37f356aa5"}}, {"type": "Feature", "geometry": {"type": "Point", "coordinates": [-89.122, 16.92]}, "properties": {"name": "Pottery Hill Cave", "culture": "Maya", "layer": "maya-inscriptions", "country": "Belize, Cayo", "description": "Site with recorded Maya inscriptions.", "_entity_id": "74b49204-da91-4aca-b27b-a50a728b5a11"}}, {"type": "Feature", "geometry": {"type": "Point", "coordinates": [-90.67155, 16.559623]}, "properties": {"name": "Primera Seccion Benemerito de las Americas", "culture": "Maya", "layer": "maya-inscriptions", "country": "Mexiko, Chiapas", "description": "Site with recorded Maya inscriptions.", "_entity_id": "3754aaa0-3a2d-4c33-b39c-001712fd1f67"}}, {"type": "Feature", "geometry": {"type": "Point", "coordinates": [-90.1922, 16.43196]}, "properties": {"name": "Punta Chimino", "culture": "Maya", "layer": "maya-inscriptions", "country": "Guatemala, Pet\u00e9n", "description": "Site with recorded Maya inscriptions. Also known as: Punta de Chimino", "acronym": "PCH", "alt_name": "Punta de Chimino", "_entity_id": "b2f39e88-305d-4851-a3b9-2a8dde9b9170"}}, {"type": "Feature", "geometry": {"type": "Point", "coordinates": [-89.195278, 16.1125]}, "properties": {"name": "Pusilha", "culture": "Maya", "layer": "maya-inscriptions", "country": "Belize, Toledo", "description": "Site with recorded Maya inscriptions. Also known as: Chumucha", "acronym": "PUS", "alt_name": "Chumucha", "_entity_id": "8f996f44-2cb4-4b0d-9515-ccbc31bc8db5"}}, {"type": "Feature", "geometry": {"type": "Point", "coordinates": [-89.04033, 15.27046]}, "properties": {"name": "Quirigua", "culture": "Maya", "layer": "maya-inscriptions", "country": "Guatemala, Izabal", "description": "Site with recorded Maya inscriptions.", "acronym": "QRG", "_entity_id": "f0a2b303-30e2-4ae7-a05a-a36c2eac49c2"}}, {"type": "Feature", "geometry": {"type": "Point", "coordinates": [-87.138013, 20.580423]}, "properties": {"name": "Rancho Ina", "culture": "Maya", "layer": "maya-inscriptions", "country": "Mexiko, Quintana Roo", "description": "Site with recorded Maya inscriptions.", "acronym": "RIN", "_entity_id": "b32be5e4-f3e9-42e3-b1ac-c734a54e656f"}}, {"type": "Feature", "geometry": {"type": "Point", "coordinates": [-89.493202, 19.97902]}, "properties": {"name": "Rancho Perez", "culture": "Maya", "layer": "maya-inscriptions", "country": "Mexiko, Yucat\u00e1n", "description": "Site with recorded Maya inscriptions.", "_entity_id": "2b4f5d24-46df-48a1-84ad-637bac7141cf"}}, {"type": "Feature", "geometry": {"type": "Point", "coordinates": [-90.663026, 15.657987]}, "properties": {"name": "Ratinlixul", "culture": "Maya", "layer": "maya-inscriptions", "country": "Guatemala, Alta Verapaz", "description": "Site with recorded Maya inscriptions.", "acronym": "RTN", "_entity_id": "efb8944c-2b8e-4577-b658-20770e45695b"}}, {"type": "Feature", "geometry": {"type": "Point", "coordinates": [-89.003077, 14.889382]}, "properties": {"name": "R\u00c3\u00ado Amarillo", "culture": "Maya", "layer": "maya-inscriptions", "country": "Honduras, Cop\u00e1n", "description": "Site with recorded Maya inscriptions.", "acronym": "RAM", "_entity_id": "39815f1a-806a-4d40-bab7-fccfcfc3f682"}}, {"type": "Feature", "geometry": {"type": "Point", "coordinates": [-89.280009, 17.779073]}, "properties": {"name": "R\u00c3\u00ado AzulIxcanr\u00c3\u00ado = Las Gardenias", "culture": "Maya", "layer": "maya-inscriptions", "country": "Guatemala, Pet\u00e9n", "description": "Site with recorded Maya inscriptions.", "acronym": "RAZ", "_entity_id": "f6a41082-3d46-4a99-89ff-d065217b0e18"}}, {"type": "Feature", "geometry": {"type": "Point", "coordinates": [-89.3797, 18.33961]}, "properties": {"name": "R\u00c3\u00ado Bec", "culture": "Maya", "layer": "maya-inscriptions", "country": "Mexiko, Campeche", "description": "Site with recorded Maya inscriptions. Also known as: Rio Bec = Ixtinta", "acronym": "RBC", "alt_name": "Rio Bec = Ixtinta", "_entity_id": "088a98e0-b6ed-4352-b1e9-2aeb11cb7580"}}, {"type": "Feature", "geometry": {"type": "Point", "coordinates": [-88.661763, 18.117915]}, "properties": {"name": "R\u00c3\u00ado Hondo", "culture": "Maya", "layer": "maya-inscriptions", "country": "Belize, Orange Walk", "description": "Site with recorded Maya inscriptions.", "acronym": "RHD", "_entity_id": "2af1cd74-91c7-401f-88d4-f370bd1813f4"}}, {"type": "Feature", "geometry": {"type": "Point", "coordinates": [-89.569717, 20.20395]}, "properties": {"name": "Sabacche", "culture": "Maya", "layer": "maya-inscriptions", "country": "Mexiko, Yucat\u00e1n", "description": "Site with recorded Maya inscriptions.", "acronym": "SAB", "_entity_id": "aef94d0e-b741-4a31-a5f2-2ad0d7d5ab51"}}, {"type": "Feature", "geometry": {"type": "Point", "coordinates": [-89.617333, 20.105633]}, "properties": {"name": "Sabana Piletas", "culture": "Maya", "layer": "maya-inscriptions", "country": "Mexiko, Yucat\u00e1n", "description": "Site with recorded Maya inscriptions. Also known as: Savana Xpilha = Chuhe", "alt_name": "Savana Xpilha = Chuhe", "_entity_id": "fb0ab135-193f-41ec-a491-e3a747ad8815"}}, {"type": "Feature", "geometry": {"type": "Point", "coordinates": [-91.78753, 16.0803]}, "properties": {"name": "Sacchana", "culture": "Maya", "layer": "maya-inscriptions", "country": "Mexiko, Chiapas", "description": "Site with recorded Maya inscriptions. Also known as: Quen Santo", "acronym": "SCN", "alt_name": "Quen Santo", "_entity_id": "a54cd10f-a99f-4858-ba94-4889f631ca97"}}, {"type": "Feature", "geometry": {"type": "Point", "coordinates": [-89.585726, 20.204335]}, "properties": {"name": "Sacnicte", "culture": "Maya", "layer": "maya-inscriptions", "country": "Mexiko, Yucat\u00e1n", "description": "Site with recorded Maya inscriptions. Also known as: Sac Nict\u00c3\u00a9 = Sanacte = Sannacte", "acronym": "SNT", "alt_name": "Sac Nict\u00c3\u00a9 = Sanacte = Sannacte", "_entity_id": "68f195f5-794c-4957-b578-47e4410e99c4"}}, {"type": "Feature", "geometry": {"type": "Point", "coordinates": [-89.291883, 16.538017]}, "properties": {"name": "Sacul", "culture": "Maya", "layer": "maya-inscriptions", "country": "Guatemala, Pet\u00e9n", "description": "Site with recorded Maya inscriptions.", "acronym": "SCU", "_entity_id": "62099921-93ac-47c1-ac49-7cc2067b8db2"}}, {"type": "Feature", "geometry": {"type": "Point", "coordinates": [-90.61709, 15.989219]}, "properties": {"name": "Salinas de los Nueve Cerros", "culture": "Maya", "layer": "maya-inscriptions", "country": "Guatemala, Alta Verapaz", "description": "Site with recorded Maya inscriptions.", "acronym": "SAL", "_entity_id": "a81208e0-4d6d-4b48-b037-e1e92f18876c"}}, {"type": "Feature", "geometry": {"type": "Point", "coordinates": [-89.403888, 17.548333]}, "properties": {"name": "San Bartolo", "culture": "Maya", "layer": "maya-inscriptions", "country": "Guatemala, Pet\u00e9n", "description": "Site with recorded Maya inscriptions.", "acronym": "SBR", "_entity_id": "c07232b7-80e1-4768-9b2f-5773396e4f9f"}}, {"type": "Feature", "geometry": {"type": "Point", "coordinates": [-89.521133, 17.016816]}, "properties": {"name": "San Clemente", "culture": "Maya", "layer": "maya-inscriptions", "country": "Guatemala, Pet\u00e9n", "description": "Site with recorded Maya inscriptions. Also known as: Chichantun", "acronym": "SCM", "alt_name": "Chichantun", "_entity_id": "cf3a7443-4417-4d09-bdee-a71a08ca05c4"}}, {"type": "Feature", "geometry": {"type": "Point", "coordinates": [-90.469883, 16.91705]}, "properties": {"name": "San Diego", "culture": "Maya", "layer": "maya-inscriptions", "country": "Guatemala, Pet\u00e9n", "description": "Site with recorded Maya inscriptions.", "acronym": "SDG", "_entity_id": "3029f4af-56bf-4f17-ba94-fed71f4ec818"}}, {"type": "Feature", "geometry": {"type": "Point", "coordinates": [-89.291483, 19.857717]}, "properties": {"name": "San Diego Becanchen", "culture": "Maya", "layer": "maya-inscriptions", "country": "Mexiko, Yucat\u00e1n", "description": "Site with recorded Maya inscriptions. Also known as: San Diego de Becanchen = San Diego bei Becanchen = San Diego Buenavista", "acronym": "SDB", "alt_name": "San Diego de Becanchen = San Diego bei Becanchen = San Diego Buenavista", "_entity_id": "c733207d-8c24-4d44-b529-38eed6ff9d65"}}, {"type": "Feature", "geometry": {"type": "Point", "coordinates": [-86.846276, 20.499973]}, "properties": {"name": "San Gervasio", "culture": "Maya", "layer": "maya-inscriptions", "country": "Mexiko, Quintana Roo", "description": "Site with recorded Maya inscriptions.", "acronym": "SNG", "_entity_id": "a5e893b4-d806-4512-8ef5-666dc3f3b498"}}, {"type": "Feature", "geometry": {"type": "Point", "coordinates": [-90.10644, 20.17066]}, "properties": {"name": "San Joaqu\u00c3\u00adn", "culture": "Maya", "layer": "maya-inscriptions", "country": "Mexiko, Campeche", "description": "Site with recorded Maya inscriptions. Also known as: San Joaqu\u00c3\u00adn I", "acronym": "SJQ", "alt_name": "San Joaqu\u00c3\u00adn I", "_entity_id": "38912542-7a40-4016-a479-d4e3c6e67717"}}, {"type": "Feature", "geometry": {"type": "Point", "coordinates": [-90.09892, 20.17343]}, "properties": {"name": "San Joaqu\u00c3\u00adn II", "culture": "Maya", "layer": "maya-inscriptions", "country": "Mexiko, Campeche", "description": "Site with recorded Maya inscriptions.", "_entity_id": "09b7e53e-c3f4-4f46-ba58-3c488904e975"}}, {"type": "Feature", "geometry": {"type": "Point", "coordinates": [-89.5475, 18.382333]}, "properties": {"name": "San Lorenzo", "culture": "Maya", "layer": "maya-inscriptions", "country": "Mexiko, Campeche", "description": "Site with recorded Maya inscriptions.", "acronym": "SLM", "_entity_id": "196351eb-27bb-48b6-af04-1f2e8a8dfd0f"}}, {"type": "Feature", "geometry": {"type": "Point", "coordinates": [-89.811, 20.20283]}, "properties": {"name": "San Simon Pueblo", "culture": "Maya", "layer": "maya-inscriptions", "country": "Mexiko, Yucat\u00e1n", "description": "Site with recorded Maya inscriptions. Also known as: San Simon = Hacienda San Simon", "acronym": "SSM", "alt_name": "San Simon = Hacienda San Simon", "_entity_id": "68ed8f3e-313f-4302-bb68-c3a2e3c00296"}}, {"type": "Feature", "geometry": {"type": "Point", "coordinates": [-90.11183, 20.70333]}, "properties": {"name": "Santa B\u00c3\u00a1rbara", "culture": "Maya", "layer": "maya-inscriptions", "country": "Mexiko, Yucat\u00e1n", "description": "Site with recorded Maya inscriptions. Also known as: Santa B\u00c3\u00a1rbara, Campeche = Santa Barbara (Paraiso)  = Santa Barbara (Yucat\u00c3\u00a1n) [Hacienda Paraiso] = El Para\u00c3\u00adso =  Hunanhil", "acronym": "SBB", "alt_name": "Santa B\u00c3\u00a1rbara, Campeche = Santa Barbara (Paraiso)  = Santa Barbara (Yucat\u00c3\u00a1n) [Hacienda Paraiso] = El Para\u00c3\u00adso =  Hunanhil", "_entity_id": "e8338726-a4a4-4919-9347-5479ea4d194b"}}, {"type": "Feature", "geometry": {"type": "Point", "coordinates": [-91.414444, 17.625003]}, "properties": {"name": "Santa Elena Balancan", "culture": "Maya", "layer": "maya-inscriptions", "country": "Mexiko, Tabasco", "description": "Site with recorded Maya inscriptions.", "acronym": "SEB", "_entity_id": "6d21fa80-02f4-44c8-a202-c3d6dbffa401"}}, {"type": "Feature", "geometry": {"type": "Point", "coordinates": [-91.739021, 16.587477]}, "properties": {"name": "Santa Elena Poco Uinic", "culture": "Maya", "layer": "maya-inscriptions", "country": "Mexiko, Chiapas", "description": "Site with recorded Maya inscriptions. Also known as: Poco Uinic", "acronym": "SEP", "alt_name": "Poco Uinic", "_entity_id": "b15210be-ba34-4800-8be6-155d72ab3c55"}}, {"type": "Feature", "geometry": {"type": "Point", "coordinates": [-88.395094, 18.40232]}, "properties": {"name": "Santa Rita Corozal", "culture": "Maya", "layer": "maya-inscriptions", "country": "Belize, Corozal", "description": "Site with recorded Maya inscriptions. Also known as: Santa Rita", "acronym": "SRC", "alt_name": "Santa Rita", "_entity_id": "fb6bdd7c-ff52-4f1d-8d2a-47f479cb522e"}}, {"type": "Feature", "geometry": {"type": "Point", "coordinates": [-89.598232, 19.77258]}, "properties": {"name": "Santa Rosa Xtampak", "culture": "Maya", "layer": "maya-inscriptions", "country": "Mexiko, Campeche", "description": "Site with recorded Maya inscriptions. Also known as: Santa Rosa Xlabpak", "acronym": "SRX", "alt_name": "Santa Rosa Xlabpak", "_entity_id": "49d144e7-bd2e-43f8-a971-e82a245b25e3"}}, {"type": "Feature", "geometry": {"type": "Point", "coordinates": [-89.651939, 20.177985]}, "properties": {"name": "Sayil", "culture": "Maya", "layer": "maya-inscriptions", "country": "Mexiko, Yucat\u00e1n", "description": "Site with recorded Maya inscriptions.", "acronym": "SAY", "_entity_id": "7adc63a0-479b-434a-a00b-dcd60c391781"}}, {"type": "Feature", "geometry": {"type": "Point", "coordinates": [-90.061565, 16.513575]}, "properties": {"name": "Seibal", "culture": "Maya", "layer": "maya-inscriptions", "country": "Guatemala, Pet\u00e9n", "description": "Site with recorded Maya inscriptions. Also known as: El Ceibal = Sactankiki = Saxtanquiqui", "acronym": "SBL", "alt_name": "El Ceibal = Sactankiki = Saxtanquiqui", "_entity_id": "1587a291-6225-480d-b44e-508cf0a18563"}}, {"type": "Feature", "geometry": {"type": "Point", "coordinates": [-90.171916, 20.489802]}, "properties": {"name": "Siho", "culture": "Maya", "layer": "maya-inscriptions", "country": "Mexiko, Yucat\u00e1n", "description": "Site with recorded Maya inscriptions.", "acronym": "SHO", "_entity_id": "a6aed9f4-1b16-4018-b701-45caa9907e2c"}}, {"type": "Feature", "geometry": {"type": "Point", "coordinates": [-89.888846, 20.220726]}, "properties": {"name": "SisilhaSisila", "culture": "Maya", "layer": "maya-inscriptions", "country": "Mexiko, Campeche", "description": "Site with recorded Maya inscriptions.", "acronym": "SIS", "_entity_id": "aca35a2f-a6e7-4189-b7bf-9a480a8b39b2"}}, {"type": "Feature", "geometry": {"type": "Point", "coordinates": [-91.733077, 14.634945]}, "properties": {"name": "Tak'alik Ab'aj", "culture": "Maya", "layer": "maya-inscriptions", "country": "Guatemala, Retalhuleu", "description": "Site with recorded Maya inscriptions. Also known as: Abaj Takalik = Takalik Abaj = San Isidro Piedra Parada", "acronym": "ABJ", "alt_name": "Abaj Takalik = Takalik Abaj = San Isidro Piedra Parada", "_entity_id": "7a3f533e-bf53-4c6f-bd5e-aef2614e2a01"}}, {"type": "Feature", "geometry": {"type": "Point", "coordinates": [-90.238642, 16.451161]}, "properties": {"name": "Tamarindito", "culture": "Maya", "layer": "maya-inscriptions", "country": "Guatemala, Pet\u00e9n", "description": "Site with recorded Maya inscriptions.", "acronym": "TAM", "_entity_id": "c4a05a13-0e83-40aa-b8db-e86fcafad71a"}}, {"type": "Feature", "geometry": {"type": "Point", "coordinates": [-87.41432, 20.24628]}, "properties": {"name": "Tancah", "culture": "Maya", "layer": "maya-inscriptions", "country": "Mexiko, Quintana Roo", "description": "Site with recorded Maya inscriptions.", "acronym": "TAN", "_entity_id": "6606d081-dfa9-4aed-8424-00aa7b8c633d"}}, {"type": "Feature", "geometry": {"type": "Point", "coordinates": [-89.8969, 16.93762]}, "properties": {"name": "Tayasal", "culture": "Maya", "layer": "maya-inscriptions", "country": "Guatemala, Pet\u00e9n", "description": "Site with recorded Maya inscriptions. Also known as: Taiz\u00c3\u00a1 = Taitz\u00c3\u00a1 = Noj Peten", "acronym": "TSL", "alt_name": "Taiz\u00c3\u00a1 = Taitz\u00c3\u00a1 = Noj Peten", "_entity_id": "e9763d95-7e79-4a47-b28c-08906598d544"}}, {"type": "Feature", "geometry": {"type": "Point", "coordinates": [-89.40335, 20.287296]}, "properties": {"name": "Techoh", "culture": "Maya", "layer": "maya-inscriptions", "country": "Mexiko, Yucat\u00e1n", "description": "Site with recorded Maya inscriptions. Also known as: Tecoh", "acronym": "TCH", "alt_name": "Tecoh", "_entity_id": "5f975501-8d1c-40e8-8520-70e1dc0e721a"}}, {"type": "Feature", "geometry": {"type": "Point", "coordinates": [-91.089809, 16.981835]}, "properties": {"name": "Tecolote", "culture": "Maya", "layer": "maya-inscriptions", "country": "Guatemala, Pet\u00e9n", "description": "Site with recorded Maya inscriptions.", "_entity_id": "3d47adba-d517-4e55-9937-79b9868aa23a"}}, {"type": "Feature", "geometry": {"type": "Point", "coordinates": [-89.623542, 17.222049]}, "properties": {"name": "Tikal", "culture": "Maya", "layer": "maya-inscriptions", "country": "Guatemala, Pet\u00e9n", "description": "Site with recorded Maya inscriptions. Also known as: Mutul", "acronym": "TIK", "alt_name": "Mutul", "_entity_id": "9b0cbd66-0804-41b2-aee2-0a0584f1b9c9"}}, {"type": "Feature", "geometry": {"type": "Point", "coordinates": [-89.996414, 17.580455]}, "properties": {"name": "Tintal", "culture": "Maya", "layer": "maya-inscriptions", "country": "Guatemala, Pet\u00e9n", "description": "Site with recorded Maya inscriptions.", "acronym": "TNT", "_entity_id": "a541c169-4b69-4e09-bcf6-bbf5858b4b81"}}, {"type": "Feature", "geometry": {"type": "Point", "coordinates": [-88.8, 17.1]}, "properties": {"name": "Tipan Chen Uitz", "culture": "Maya", "layer": "maya-inscriptions", "country": "Belize, Cayo", "description": "Site with recorded Maya inscriptions.", "acronym": "TCU", "_entity_id": "ddb66386-9850-4582-9093-87654cec2751"}}, {"type": "Feature", "geometry": {"type": "Point", "coordinates": [-89.875133, 19.770274]}, "properties": {"name": "Tohcok", "culture": "Maya", "layer": "maya-inscriptions", "country": "Mexiko, Campeche", "description": "Site with recorded Maya inscriptions.", "acronym": "TCK", "_entity_id": "c1009c17-b6ff-4595-a46e-0376495f3b2b"}}, {"type": "Feature", "geometry": {"type": "Point", "coordinates": [-93.7652, 16.05601]}, "properties": {"name": "Tonala", "culture": "Maya", "layer": "maya-inscriptions", "country": "Mexiko, Chiapas", "description": "Site with recorded Maya inscriptions.", "acronym": "TNL", "_entity_id": "19e7348e-a266-4b0a-b6e4-4a33009ad958"}}, {"type": "Feature", "geometry": {"type": "Point", "coordinates": [-92.00967, 16.90122]}, "properties": {"name": "Tonina", "culture": "Maya", "layer": "maya-inscriptions", "country": "Mexiko, Chiapas", "description": "Site with recorded Maya inscriptions. Also known as: Aharicab = Tulh\u00c3\u00a1 = Tonila = Ocosingo = San Carlos", "acronym": "TNA", "alt_name": "Aharicab = Tulh\u00c3\u00a1 = Tonila = Ocosingo = San Carlos", "_entity_id": "af12010b-bae6-4eb5-ad8d-25fc70ab7455"}}, {"type": "Feature", "geometry": {"type": "Point", "coordinates": [-89.424462, 17.062237]}, "properties": {"name": "Topoxte", "culture": "Maya", "layer": "maya-inscriptions", "country": "Guatemala, Pet\u00e9n", "description": "Site with recorded Maya inscriptions.", "acronym": "TPX", "_entity_id": "09fd7e51-3001-4c6b-87d3-018324d73931"}}, {"type": "Feature", "geometry": {"type": "Point", "coordinates": [-90.0529, 16.196947]}, "properties": {"name": "Tres Islas", "culture": "Maya", "layer": "maya-inscriptions", "country": "Guatemala, Pet\u00e9n", "description": "Site with recorded Maya inscriptions.", "acronym": "TRS", "_entity_id": "13455cec-e846-4253-a883-37f12a6fb14e"}}, {"type": "Feature", "geometry": {"type": "Point", "coordinates": [-87.42889, 20.21472]}, "properties": {"name": "Tulum", "culture": "Maya", "layer": "maya-inscriptions", "country": "Mexiko, Quintana Roo", "description": "Site with recorded Maya inscriptions.", "acronym": "TUL", "_entity_id": "90827410-8163-45dc-94ea-6dfbb196cb60"}}, {"type": "Feature", "geometry": {"type": "Point", "coordinates": [-89.70823, 20.07128]}, "properties": {"name": "Tunkuyi", "culture": "Maya", "layer": "maya-inscriptions", "country": "Mexiko, Campeche", "description": "Site with recorded Maya inscriptions.", "acronym": "TUN", "_entity_id": "2d6fc4ee-6790-4665-82a9-8fbdbd2142ed"}}, {"type": "Feature", "geometry": {"type": "Point", "coordinates": [-89.43444, 17.69056]}, "properties": {"name": "Tz'ibatnah", "culture": "Maya", "layer": "maya-inscriptions", "country": "Guatemala, Pet\u00e9n", "description": "Site with recorded Maya inscriptions.", "_entity_id": "410110df-13e1-407a-a4b5-c13d7eb73561"}}, {"type": "Feature", "geometry": {"type": "Point", "coordinates": [-88.75866, 18.63841]}, "properties": {"name": "Tzibanche", "culture": "Maya", "layer": "maya-inscriptions", "country": "Mexiko, Quintana Roo", "description": "Site with recorded Maya inscriptions. Also known as: Dzibanche", "acronym": "TZB", "alt_name": "Dzibanche", "_entity_id": "e50f317c-aac0-4f3b-b96c-db066d29d5a2"}}, {"type": "Feature", "geometry": {"type": "Point", "coordinates": [-88.799744, 16.393231]}, "properties": {"name": "Tzimin Che", "culture": "Maya", "layer": "maya-inscriptions", "country": "Belize, Toledo", "description": "Site with recorded Maya inscriptions.", "_entity_id": "a462cf46-ac2d-46f9-925d-cc64117259e9"}}, {"type": "Feature", "geometry": {"type": "Point", "coordinates": [-89.97303, 20.20572]}, "properties": {"name": "Tzocchen", "culture": "Maya", "layer": "maya-inscriptions", "country": "Mexiko, Campeche", "description": "Site with recorded Maya inscriptions. Also known as: Dzocchen = Tzochcen = Dzotchen = Tzotchen", "acronym": "TZC", "alt_name": "Dzocchen = Tzochcen = Dzotchen = Tzotchen", "_entity_id": "d7027ddf-c9d2-4c1b-aa02-bcb4b248736d"}}, {"type": "Feature", "geometry": {"type": "Point", "coordinates": [-89.82075, 19.969483]}, "properties": {"name": "Tzum", "culture": "Maya", "layer": "maya-inscriptions", "country": "Mexiko, Campeche", "description": "Site with recorded Maya inscriptions.", "acronym": "TZM", "_entity_id": "c3e9d3d0-b2c1-434b-a0b1-46d40a473b51"}}, {"type": "Feature", "geometry": {"type": "Point", "coordinates": [-89.629533, 17.391196]}, "properties": {"name": "Uaxactun", "culture": "Maya", "layer": "maya-inscriptions", "country": "Guatemala, Pet\u00e9n", "description": "Site with recorded Maya inscriptions. Also known as: Bambonal = San Leandro", "acronym": "UAX", "alt_name": "Bambonal = San Leandro", "_entity_id": "f9406e9f-0404-405b-a9a8-dc152222e2ea"}}, {"type": "Feature", "geometry": {"type": "Point", "coordinates": [-90.477431, 20.454841]}, "properties": {"name": "Uaymil", "culture": "Maya", "layer": "maya-inscriptions", "country": "Mexiko, Campeche", "description": "Site with recorded Maya inscriptions. Also known as: Huaymil = Guaymil = Isla Uaymil = Uaymitun", "acronym": "UYM", "alt_name": "Huaymil = Guaymil = Isla Uaymil = Uaymitun", "_entity_id": "55b42d40-b856-4572-a01d-f556b016e134"}}, {"type": "Feature", "geometry": {"type": "Point", "coordinates": [-89.3625, 16.8405]}, "properties": {"name": "Ucanal", "culture": "Maya", "layer": "maya-inscriptions", "country": "Guatemala, Pet\u00e9n", "description": "Site with recorded Maya inscriptions. Also known as: Yokanal", "acronym": "UCN", "alt_name": "Yokanal", "_entity_id": "80160ef8-7a7c-4359-84ed-62a60cc0fc1b"}}, {"type": "Feature", "geometry": {"type": "Point", "coordinates": [-89.310834, 20.501666]}, "properties": {"name": "Ukum", "culture": "Maya", "layer": "maya-inscriptions", "country": "Mexiko, Yucat\u00e1n", "description": "Site with recorded Maya inscriptions.", "acronym": "UKM", "_entity_id": "65317a9f-fb3e-48ca-90e2-a030f7651921"}}, {"type": "Feature", "geometry": {"type": "Point", "coordinates": [-89.579932, 17.185279]}, "properties": {"name": "Uolantun", "culture": "Maya", "layer": "maya-inscriptions", "country": "Guatemala, Pet\u00e9n", "description": "Site with recorded Maya inscriptions.", "acronym": "UOL", "_entity_id": "b130a663-2fe5-4d84-a4bf-768ff2cdb496"}}, {"type": "Feature", "geometry": {"type": "Point", "coordinates": [-89.068708, 16.240205]}, "properties": {"name": "Uxbenka", "culture": "Maya", "layer": "maya-inscriptions", "country": "Belize, Toledo", "description": "Site with recorded Maya inscriptions.", "acronym": "UXB", "_entity_id": "92804e85-8c40-4db8-bbdb-3273ebcc1806"}}, {"type": "Feature", "geometry": {"type": "Point", "coordinates": [-89.769316, 20.360732]}, "properties": {"name": "Uxmal", "culture": "Maya", "layer": "maya-inscriptions", "country": "Mexiko, Yucat\u00e1n", "description": "Site with recorded Maya inscriptions. Also known as: Ushmal", "acronym": "UXM", "alt_name": "Ushmal", "_entity_id": "1310ada2-dff4-4e82-a7ab-ce51bc8e5474"}}, {"type": "Feature", "geometry": {"type": "Point", "coordinates": [-89.985, 17.85611]}, "properties": {"name": "Uxul", "culture": "Maya", "layer": "maya-inscriptions", "country": "Mexiko, Campeche", "description": "Site with recorded Maya inscriptions.", "acronym": "UXL", "_entity_id": "839773dd-d38f-4a08-8a38-e0f8c58322a0"}}, {"type": "Feature", "geometry": {"type": "Point", "coordinates": [-89.251, 17.426]}, "properties": {"name": "Witzna", "culture": "Maya", "layer": "maya-inscriptions", "country": "Guatemala, Pet\u00e9n", "description": "Site with recorded Maya inscriptions. Also known as: Huitzna", "acronym": "WIT", "alt_name": "Huitzna", "_entity_id": "02859eec-7c8b-4119-b09d-c32a05e6f9bb"}}, {"type": "Feature", "geometry": {"type": "Point", "coordinates": [-89.439167, 20.0455]}, "properties": {"name": "Xcakochna", "culture": "Maya", "layer": "maya-inscriptions", "country": "Mexiko, Yucat\u00e1n", "description": "Site with recorded Maya inscriptions.", "_entity_id": "8313e060-da3a-4832-a3c7-4ca0b85ce529"}}, {"type": "Feature", "geometry": {"type": "Point", "coordinates": [-90.010194, 20.172139]}, "properties": {"name": "Xcalumkin", "culture": "Maya", "layer": "maya-inscriptions", "country": "Mexiko, Campeche", "description": "Site with recorded Maya inscriptions. Also known as: Holactun = Yokactun", "acronym": "XLM", "alt_name": "Holactun = Yokactun", "_entity_id": "891d55c3-29b7-49e7-bc46-09cf3d75da6b"}}, {"type": "Feature", "geometry": {"type": "Point", "coordinates": [-89.35394, 21.313471]}, "properties": {"name": "Xcambo", "culture": "Maya", "layer": "maya-inscriptions", "country": "Mexiko, Yucat\u00e1n", "description": "Site with recorded Maya inscriptions.", "acronym": "XCM", "_entity_id": "e5584a25-e590-40d6-a35e-6f3416b62afe"}}, {"type": "Feature", "geometry": {"type": "Point", "coordinates": [-89.508487, 20.159403]}, "properties": {"name": "XcanahelebX", "culture": "Maya", "layer": "maya-inscriptions", "country": "Mexiko, Yucat\u00e1n", "description": "Site with recorded Maya inscriptions. Also known as: Cana Heleb", "acronym": "XCH", "alt_name": "Cana Heleb", "_entity_id": "0428abfc-3bc9-45ef-bd65-723811720e50"}}, {"type": "Feature", "geometry": {"type": "Point", "coordinates": [-89.294631, 20.188891]},