{"type": "FeatureCollection", "features": [{"type": "Feature", "id": "6f0e994f-3c8f-4be8-8497-aab5847c9fe2", "geometry": {"type": "Point", "coordinates": [-89.45246, 20.813087]}, "properties": {"_entity_id": "6f0e994f-3c8f-4be8-8497-aab5847c9fe2", "name": "Acanceh", "place_type": "archaeological_site", "date_start": null, "date_end": null, "date_precision": "period_only", "date_label": null, "elevation_m": null}}, {"type": "Feature", "id": "0d0725c5-d880-49c7-850d-41dffc67cb0e", "geometry": {"type": "Point", "coordinates": [-90.3254, 19.90093]}, "properties": {"_entity_id": "0d0725c5-d880-49c7-850d-41dffc67cb0e", "name": "Acanmul", "place_type": "archaeological_site", "date_start": null, "date_end": null, "date_precision": "period_only", "date_label": null, "elevation_m": null}}, {"type": "Feature", "id": "82bca93d-d055-49ef-9772-26ae141ed2c9", "geometry": {"type": "Point", "coordinates": [-89.962406, 14.928033]}, "properties": {"_entity_id": "82bca93d-d055-49ef-9772-26ae141ed2c9", "name": "Acasaguastlan", "place_type": "archaeological_site", "date_start": null, "date_end": null, "date_precision": "period_only", "date_label": null, "elevation_m": null}}, {"type": "Feature", "id": "466617c8-55ed-4a55-864f-a6d545ff7d19", "geometry": {"type": "Point", "coordinates": [-89.939, 17.0755]}, "properties": {"_entity_id": "466617c8-55ed-4a55-864f-a6d545ff7d19", "name": "Acte", "place_type": "archaeological_site", "date_start": null, "date_end": null, "date_precision": "period_only", "date_label": null, "elevation_m": null}}, {"type": "Feature", "id": "47710458-6f4e-4713-919c-669e49f295f0", "geometry": {"type": "Point", "coordinates": [-88.58, 16.45]}, "properties": {"_entity_id": "47710458-6f4e-4713-919c-669e49f295f0", "name": "Actun Balam", "place_type": "archaeological_site", "date_start": null, "date_end": null, "date_precision": "period_only", "date_label": null, "elevation_m": null}}, {"type": "Feature", "id": "5afbf643-2d12-42d9-956b-70ba46d98ed8", "geometry": {"type": "Point", "coordinates": [-89.423006, 20.29668]}, "properties": {"_entity_id": "5afbf643-2d12-42d9-956b-70ba46d98ed8", "name": "Actun Ch'on", "place_type": "archaeological_site", "date_start": null, "date_end": null, "date_precision": "period_only", "date_label": null, "elevation_m": null}}, {"type": "Feature", "id": "82394e89-cf6b-46aa-b703-077b7dfada93", "geometry": {"type": "Point", "coordinates": [-89.08801, 17.03631]}, "properties": {"_entity_id": "82394e89-cf6b-46aa-b703-077b7dfada93", "name": "Actun Chapat", "place_type": "archaeological_site", "date_start": null, "date_end": null, "date_precision": "period_only", "date_label": null, "elevation_m": null}}, {"type": "Feature", "id": "8891b867-cd43-4063-8480-0d1788f824e9", "geometry": {"type": "Point", "coordinates": [-89.057019, 16.197779]}, "properties": {"_entity_id": "8891b867-cd43-4063-8480-0d1788f824e9", "name": "Actun Dzib", "place_type": "archaeological_site", "date_start": null, "date_end": null, "date_precision": "period_only", "date_label": null, "elevation_m": null}}, {"type": "Feature", "id": "d38e1206-cc5c-403a-9737-ec1d57d83945", "geometry": {"type": "Point", "coordinates": [-88.67501, 17.18516]}, "properties": {"_entity_id": "d38e1206-cc5c-403a-9737-ec1d57d83945", "name": "Actun Neko", "place_type": "archaeological_site", "date_start": null, "date_end": null, "date_precision": "period_only", "date_label": null, "elevation_m": null}}, {"type": "Feature", "id": "04c993c5-c7da-4044-829a-9f99977bbba8", "geometry": {"type": "Point", "coordinates": [-88.86394, 17.11356]}, "properties": {"_entity_id": "04c993c5-c7da-4044-829a-9f99977bbba8", "name": "Actun Tunichil Muknal", "place_type": "archaeological_site", "date_start": null, "date_end": null, "date_precision": "period_only", "date_label": null, "elevation_m": null}}, {"type": "Feature", "id": "b5a067b4-e570-423e-a5fc-3b6887bcca52", "geometry": {"type": "Point", "coordinates": [-89.140828, 17.107507]}, "properties": {"_entity_id": "b5a067b4-e570-423e-a5fc-3b6887bcca52", "name": "Actuncan", "place_type": "archaeological_site", "date_start": null, "date_end": null, "date_precision": "period_only", "date_label": null, "elevation_m": null}}, {"type": "Feature", "id": "324307bf-3f43-43d3-89e2-cb3104582e3b", "geometry": {"type": "Point", "coordinates": [-89.456318, 20.253525]}, "properties": {"_entity_id": "324307bf-3f43-43d3-89e2-cb3104582e3b", "name": "Acum", "place_type": "archaeological_site", "date_start": null, "date_end": null, "date_precision": "period_only", "date_label": null, "elevation_m": null}}, {"type": "Feature", "id": "6ff0556d-ccc5-461e-951a-241e70831ac8", "geometry": {"type": "Point", "coordinates": [-89.2025, 17.149]}, "properties": {"_entity_id": "6ff0556d-ccc5-461e-951a-241e70831ac8", "name": "Aguacate", "place_type": "archaeological_site", "date_start": null, "date_end": null, "date_precision": "period_only", "date_label": null, "elevation_m": null}}, {"type": "Feature", "id": "b01b2011-6bd2-49c0-a6ea-afdbe3b47694", "geometry": {"type": "Point", "coordinates": [-90.38333, 16.56167]}, "properties": {"_entity_id": "b01b2011-6bd2-49c0-a6ea-afdbe3b47694", "name": "Aguas Calientes", "place_type": "archaeological_site", "date_start": null, "date_end": null, "date_precision": "period_only", "date_label": null, "elevation_m": null}}, {"type": "Feature", "id": "483e61af-0df1-46b7-89e7-268cfc824d23", "geometry": {"type": "Point", "coordinates": [-90.204668, 16.395316]}, "properties": {"_entity_id": "483e61af-0df1-46b7-89e7-268cfc824d23", "name": "Aguateca", "place_type": "archaeological_site", "date_start": null, "date_end": null, "date_precision": "period_only", "date_label": null, "elevation_m": null}}, {"type": "Feature", "id": "5e512fd0-ec93-4d53-b148-428380db4325", "geometry": {"type": "Point", "coordinates": [-89.84139, 18.415]}, "properties": {"_entity_id": "5e512fd0-ec93-4d53-b148-428380db4325", "name": "Akalpeten", "place_type": "archaeological_site", "date_start": null, "date_end": null, "date_precision": "period_only", "date_label": null, "elevation_m": null}}, {"type": "Feature", "id": "961a823d-702d-4e06-bc96-8f2b3ebb7f44", "geometry": {"type": "Point", "coordinates": [-89.30158, 20.947223]}, "properties": {"_entity_id": "961a823d-702d-4e06-bc96-8f2b3ebb7f44", "name": "Ake", "place_type": "archaeological_site", "date_start": null, "date_end": null, "date_precision": "period_only", "date_label": null, "elevation_m": null}}, {"type": "Feature", "id": "55c784b9-c721-49e7-9c4e-28cb98a62e0d", "geometry": {"type": "Point", "coordinates": [-88.262739, 20.70775]}, "properties": {"_entity_id": "55c784b9-c721-49e7-9c4e-28cb98a62e0d", "name": "Aktun Xch'omil Ch'en", "place_type": "archaeological_site", "date_start": null, "date_end": null, "date_precision": "period_only", "date_label": null, "elevation_m": null}}, {"type": "Feature", "id": "9e30cd69-3e5e-44e2-bebd-fa27e08d23be", "geometry": {"type": "Point", "coordinates": [-89.47427, 18.21732]}, "properties": {"_entity_id": "9e30cd69-3e5e-44e2-bebd-fa27e08d23be", "name": "Aktunkin", "place_type": "archaeological_site", "date_start": null, "date_end": null, "date_precision": "period_only", "date_label": null, "elevation_m": null}}, {"type": "Feature", "id": "003916ee-26e4-421e-afeb-8f652b8255f5", "geometry": {"type": "Point", "coordinates": [-87.3198, 20.40088]}, "properties": {"_entity_id": "003916ee-26e4-421e-afeb-8f652b8255f5", "name": "Akumal", "place_type": "archaeological_site", "date_start": null, "date_end": null, "date_precision": "period_only", "date_label": null, "elevation_m": null}}, {"type": "Feature", "id": "2801fb28-b874-4c9c-a0d8-dddac26802d0", "geometry": {"type": "Point", "coordinates": [-89.640334, 20.152959]}, "properties": {"_entity_id": "2801fb28-b874-4c9c-a0d8-dddac26802d0", "name": "Almuchil", "place_type": "archaeological_site", "date_start": null, "date_end": null, "date_precision": "period_only", "date_label": null, "elevation_m": null}}, {"type": "Feature", "id": "426d6f93-6035-4240-a881-b60ab8473bac", "geometry": {"type": "Point", "coordinates": [-89.54472, 17.98889]}, "properties": {"_entity_id": "426d6f93-6035-4240-a881-b60ab8473bac", "name": "Altamira", "place_type": "archaeological_site", "date_start": null, "date_end": null, "date_precision": "period_only", "date_label": null, "elevation_m": null}}, {"type": "Feature", "id": "56818aac-9c99-4937-8099-a7d063a8345c", "geometry": {"type": "Point", "coordinates": [-89.40622, 17.99042]}, "properties": {"_entity_id": "56818aac-9c99-4937-8099-a7d063a8345c", "name": "Altar de los Reyes", "place_type": "archaeological_site", "date_start": null, "date_end": null, "date_precision": "period_only", "date_label": null, "elevation_m": null}}, {"type": "Feature", "id": "7c7a9e91-2599-47e7-8199-9b18b6e04045", "geometry": {"type": "Point", "coordinates": [-90.525184, 16.473785]}, "properties": {"_entity_id": "7c7a9e91-2599-47e7-8199-9b18b6e04045", "name": "Altar de Sacrificios", "place_type": "archaeological_site", "date_start": null, "date_end": null, "date_precision": "period_only", "date_label": null, "elevation_m": null}}, {"type": "Feature", "id": "e5521969-5eb0-4be1-9497-b5d899581c2c", "geometry": {"type": "Point", "coordinates": [-88.34706, 17.76394]}, "properties": {"_entity_id": "e5521969-5eb0-4be1-9497-b5d899581c2c", "name": "Altun Ha", "place_type": "archaeological_site", "date_start": null, "date_end": null, "date_precision": "period_only", "date_label": null, "elevation_m": null}}, {"type": "Feature", "id": "352250e8-fb79-4216-95c0-6273c24da9b8", "geometry": {"type": "Point", "coordinates": [-91.229206, 17.290197]}, "properties": {"_entity_id": "352250e8-fb79-4216-95c0-6273c24da9b8", "name": "Alvaro Obregon", "place_type": "archaeological_site", "date_start": null, "date_end": null, "date_precision": "period_only", "date_label": null, "elevation_m": null}}, {"type": "Feature", "id": "e696eb5f-bdfb-4515-8971-c8525c8e5e7b", "geometry": {"type": "Point", "coordinates": [-90.11464, 16.51845]}, "properties": {"_entity_id": "e696eb5f-bdfb-4515-8971-c8525c8e5e7b", "name": "Anonal", "place_type": "archaeological_site", "date_start": null, "date_end": null, "date_precision": "period_only", "date_label": null, "elevation_m": null}}, {"type": "Feature", "id": "c21f2087-67ec-4d5e-8a7b-030eddc1610e", "geometry": {"type": "Point", "coordinates": [-90.269997, 16.451927]}, "properties": {"_entity_id": "c21f2087-67ec-4d5e-8a7b-030eddc1610e", "name": "Arroyo de Piedra", "place_type": "archaeological_site", "date_start": null, "date_end": null, "date_precision": "period_only", "date_label": null, "elevation_m": null}}, {"type": "Feature", "id": "ba2c9fec-5d18-4f7b-88c0-0ad936b091c4", "geometry": {"type": "Point", "coordinates": [-89.625181, 17.403332]}, "properties": {"_entity_id": "ba2c9fec-5d18-4f7b-88c0-0ad936b091c4", "name": "Bajo de la Joventud", "place_type": "archaeological_site", "date_start": null, "date_end": null, "date_precision": "period_only", "date_label": null, "elevation_m": null}}, {"type": "Feature", "id": "17a48fb5-1fbd-4143-ade2-46e2d93b8a80", "geometry": {"type": "Point", "coordinates": [-89.009253, 17.198485]}, "properties": {"_entity_id": "17a48fb5-1fbd-4143-ade2-46e2d93b8a80", "name": "Baking Pot", "place_type": "archaeological_site", "date_start": null, "date_end": null, "date_precision": "period_only", "date_label": null, "elevation_m": null}}, {"type": "Feature", "id": "9ce69271-96dd-4e9e-92ae-0c0e8bca9d2a", "geometry": {"type": "Point", "coordinates": [-90.08178, 19.8415]}, "properties": {"_entity_id": "9ce69271-96dd-4e9e-92ae-0c0e8bca9d2a", "name": "Bakna", "place_type": "archaeological_site", "date_start": null, "date_end": null, "date_precision": "period_only", "date_label": null, "elevation_m": null}}, {"type": "Feature", "id": "a4dbf672-3bc6-4da3-93bf-c4c84c42543f", "geometry": {"type": "Point", "coordinates": [-89.585, 17.88222]}, "properties": {"_entity_id": "a4dbf672-3bc6-4da3-93bf-c4c84c42543f", "name": "Balakbal", "place_type": "archaeological_site", "date_start": null, "date_end": null, "date_precision": "period_only", "date_label": null, "elevation_m": null}}, {"type": "Feature", "id": "568753e5-ff11-495b-88f6-ed63cce6d33f", "geometry": {"type": "Point", "coordinates": [-89.944885, 18.556518]}, "properties": {"_entity_id": "568753e5-ff11-495b-88f6-ed63cce6d33f", "name": "Balamku", "place_type": "archaeological_site", "date_start": null, "date_end": null, "date_precision": "period_only", "date_label": null, "elevation_m": null}}, {"type": "Feature", "id": "4748b4dc-8d59-4a30-bbf7-d91b13f0878d", "geometry": {"type": "Point", "coordinates": [-90.07267, 17.06617]}, "properties": {"_entity_id": "4748b4dc-8d59-4a30-bbf7-d91b13f0878d", "name": "Balamtun", "place_type": "archaeological_site", "date_start": null, "date_end": null, "date_precision": "period_only", "date_label": null, "elevation_m": null}}, {"type": "Feature", "id": "960cd78f-c29b-4b57-96a7-2e7e0920517c", "geometry": {"type": "Point", "coordinates": [-89.466701, 18.517393]}, "properties": {"_entity_id": "960cd78f-c29b-4b57-96a7-2e7e0920517c", "name": "Becan", "place_type": "archaeological_site", "date_start": null, "date_end": null, "date_precision": "period_only", "date_label": null, "elevation_m": null}}, {"type": "Feature", "id": "089db088-c681-4a9b-acb2-a69df0ca7e55", "geometry": {"type": "Point", "coordinates": [-88.986627, 17.943173]}, "properties": {"_entity_id": "089db088-c681-4a9b-acb2-a69df0ca7e55", "name": "Bedrock", "place_type": "archaeological_site", "date_start": null, "date_end": null, "date_precision": "period_only", "date_label": null, "elevation_m": null}}, {"type": "Feature", "id": "2f4bc4d0-012c-40cd-b734-23c87b0e5377", "geometry": {"type": "Point", "coordinates": [-89.76916, 17.28211]}, "properties": {"_entity_id": "2f4bc4d0-012c-40cd-b734-23c87b0e5377", "name": "Bejucal", "place_type": "archaeological_site", "date_start": null, "date_end": null, "date_precision": "period_only", "date_label": null, "elevation_m": null}}, {"type": "Feature", "id": "160a8c2f-8158-4565-a666-997760c016f7", "geometry": {"type": "Point", "coordinates": [-93.12175, 18.41861]}, "properties": {"_entity_id": "160a8c2f-8158-4565-a666-997760c016f7", "name": "Bellote (Island)", "place_type": "archaeological_site", "date_start": null, "date_end": null, "date_precision": "period_only", "date_label": null, "elevation_m": null}}, {"type": "Feature", "id": "25f5f99f-5368-48fb-806c-844bfcab0bfa", "geometry": {"type": "Point", "coordinates": [-89.84117, 20.11]}, "properties": {"_entity_id": "25f5f99f-5368-48fb-806c-844bfcab0bfa", "name": "Bilimkok", "place_type": "archaeological_site", "date_start": null, "date_end": null, "date_precision": "period_only", "date_label": null, "elevation_m": null}}, {"type": "Feature", "id": "d0eaea05-1cc8-4b05-b581-577cdddcf7f6", "geometry": {"type": "Point", "coordinates": [-88.9167, 17.2167]}, "properties": {"_entity_id": "d0eaea05-1cc8-4b05-b581-577cdddcf7f6", "name": "Blackman Eddy", "place_type": "archaeological_site", "date_start": null, "date_end": null, "date_precision": "period_only", "date_label": null, "elevation_m": null}}, {"type": "Feature", "id": "1015879a-6af6-436d-b50d-15b63898195f", "geometry": {"type": "Point", "coordinates": [-88.89345, 17.867988]}, "properties": {"_entity_id": "1015879a-6af6-436d-b50d-15b63898195f", "name": "Blue Creek", "place_type": "archaeological_site", "date_start": null, "date_end": null, "date_precision": "period_only", "date_label": null, "elevation_m": null}}, {"type": "Feature", "id": "f0a7f35f-27ac-4e00-96da-ee5212ab1879", "geometry": {"type": "Point", "coordinates": [-91.065, 16.704]}, "properties": {"_entity_id": "f0a7f35f-27ac-4e00-96da-ee5212ab1879", "name": "Bonampak", "place_type": "archaeological_site", "date_start": null, "date_end": null, "date_precision": "period_only", "date_label": null, "elevation_m": null}}, {"type": "Feature", "id": "e3946082-2e94-4f7f-8c11-52872959fedc", "geometry": {"type": "Point", "coordinates": [-89.12976, 17.13475]}, "properties": {"_entity_id": "e3946082-2e94-4f7f-8c11-52872959fedc", "name": "Buenavista del Cayo", "place_type": "archaeological_site", "date_start": null, "date_end": null, "date_precision": "period_only", "date_label": null, "elevation_m": null}}, {"type": "Feature", "id": "2bf0fea3-8bc3-4809-84bc-c9796a770e7a", "geometry": {"type": "Point", "coordinates": [-89.073708, 17.145956]}, "properties": {"_entity_id": "2bf0fea3-8bc3-4809-84bc-c9796a770e7a", "name": "Cahal Pech", "place_type": "archaeological_site", "date_start": null, "date_end": null, "date_precision": "period_only", "date_label": null, "elevation_m": null}}, {"type": "Feature", "id": "e164ddae-0d38-4d8d-821c-f107bd68c611", "geometry": {"type": "Point", "coordinates": [-89.810328, 18.105612]}, "properties": {"_entity_id": "e164ddae-0d38-4d8d-821c-f107bd68c611", "name": "Calakmul", "place_type": "archaeological_site", "date_start": null, "date_end": null, "date_precision": "period_only", "date_label": null, "elevation_m": null}}, {"type": "Feature", "id": "c504c25f-b4be-428e-8fc5-41720d63ee01", "geometry": {"type": "Point", "coordinates": [-91.18561, 16.85975]}, "properties": {"_entity_id": "c504c25f-b4be-428e-8fc5-41720d63ee01", "name": "Canancax", "place_type": "archaeological_site", "date_start": null, "date_end": null, "date_precision": "period_only", "date_label": null, "elevation_m": null}}, {"type": "Feature", "id": "e34da73f-6349-4741-84cb-b7f7e2571a2e", "geometry": {"type": "Point", "coordinates": [-90.03842, 16.01469]}, "properties": {"_entity_id": "e34da73f-6349-4741-84cb-b7f7e2571a2e", "name": "Cancuen", "place_type": "archaeological_site", "date_start": null, "date_end": null, "date_precision": "period_only", "date_label": null, "elevation_m": null}}, {"type": "Feature", "id": "e5dee9fd-7a59-4741-82f0-06e539218bfd", "geometry": {"type": "Point", "coordinates": [-89.71156, 17.85172]}, "properties": {"_entity_id": "e5dee9fd-7a59-4741-82f0-06e539218bfd", "name": "Candzibaantun", "place_type": "archaeological_site", "date_start": null, "date_end": null, "date_precision": "period_only", "date_label": null, "elevation_m": null}}, {"type": "Feature", "id": "d0975db5-a48f-43c6-abeb-ef50775e1682", "geometry": {"type": "Point", "coordinates": [-89.97677, 20.24405]}, "properties": {"_entity_id": "d0975db5-a48f-43c6-abeb-ef50775e1682", "name": "Cap'eldzibtunichna", "place_type": "archaeological_site", "date_start": null, "date_end": null, "date_precision": "period_only", "date_label": null, "elevation_m": null}}, {"type": "Feature", "id": "8ea117ee-8635-4cd7-8d76-87961ebdb264", "geometry": {"type": "Point", "coordinates": [-89.117781, 16.763237]}, "properties": {"_entity_id": "8ea117ee-8635-4cd7-8d76-87961ebdb264", "name": "Caracol", "place_type": "archaeological_site", "date_start": null, "date_end": null, "date_precision": "period_only", "date_label": null, "elevation_m": null}}, {"type": "Feature", "id": "d3c0c16a-72b3-47b8-bf9c-41ecbb300890", "geometry": {"type": "Point", "coordinates": [-89.345, 20.17278]}, "properties": {"_entity_id": "d3c0c16a-72b3-47b8-bf9c-41ecbb300890", "name": "Chacmultun", "place_type": "archaeological_site", "date_start": null, "date_end": null, "date_precision": "period_only", "date_label": null, "elevation_m": null}}, {"type": "Feature", "id": "c58f2abc-9912-478e-bbf1-ad18f2a4bbcc", "geometry": {"type": "Point", "coordinates": [-89.52733, 18.72428]}, "properties": {"_entity_id": "c58f2abc-9912-478e-bbf1-ad18f2a4bbcc", "name": "Chactun", "place_type": "archaeological_site", "date_start": null, "date_end": null, "date_precision": "period_only", "date_label": null, "elevation_m": null}}, {"type": "Feature", "id": "51b2c40c-77a0-4f05-a617-c553cf55ac01", "geometry": {"type": "Point", "coordinates": [-89.49914, 17.91422]}, "properties": {"_entity_id": "51b2c40c-77a0-4f05-a617-c553cf55ac01", "name": "Champerico", "place_type": "archaeological_site", "date_start": null, "date_end": null, "date_precision": "period_only", "date_label": null, "elevation_m": null}}, {"type": "Feature", "id": "19ee10e6-be72-439b-a113-5a21afb53189", "geometry": {"type": "Point", "coordinates": [-92.532619, 16.117476]}, "properties": {"_entity_id": "19ee10e6-be72-439b-a113-5a21afb53189", "name": "Chapatengo", "place_type": "archaeological_site", "date_start": null, "date_end": null, "date_precision": "period_only", "date_label": null, "elevation_m": null}}, {"type": "Feature", "id": "63e043f3-98ac-412d-b381-eae2b9e45c5c", "geometry": {"type": "Point", "coordinates": [-89.815833, 17.880833]}, "properties": {"_entity_id": "63e043f3-98ac-412d-b381-eae2b9e45c5c", "name": "Cheyokolna", "place_type": "archaeological_site", "date_start": null, "date_end": null, "date_precision": "period_only", "date_label": null, "elevation_m": null}}, {"type": "Feature", "id": "42296fdc-aebc-46b3-ac5b-54cc39e609f1", "geometry": {"type": "Point", "coordinates": [-93.003933, 16.702936]}, "properties": {"_entity_id": "42296fdc-aebc-46b3-ac5b-54cc39e609f1", "name": "Chiapa de Corzo", "place_type": "archaeological_site", "date_start": null, "date_end": null, "date_precision": "period_only", "date_label": null, "elevation_m": null}}, {"type": "Feature", "id": "fa8267fa-42ef-47aa-bce0-536f0e648acd", "geometry": {"type": "Point", "coordinates": [-89.486376, 18.506936]}, "properties": {"_entity_id": "fa8267fa-42ef-47aa-bce0-536f0e648acd", "name": "Chicanna", "place_type": "archaeological_site", "date_start": null, "date_end": null, "date_precision": "period_only", "date_label": null, "elevation_m": null}}, {"type": "Feature", "id": "84b6eaf0-bcfb-42ee-af8d-eaf1613459de", "geometry": {"type": "Point", "coordinates": [-88.569032, 20.683121]}, "properties": {"_entity_id": "84b6eaf0-bcfb-42ee-af8d-eaf1613459de", "name": "Chichen Itza", "place_type": "archaeological_site", "date_start": null, "date_end": null, "date_precision": "period_only", "date_label": null, "elevation_m": null}}, {"type": "Feature", "id": "19292580-f9bf-49ea-9577-c8d7b999f4bf", "geometry": {"type": "Point", "coordinates": [-91.579593, 17.432832]}, "properties": {"_entity_id": "19292580-f9bf-49ea-9577-c8d7b999f4bf", "name": "Chinikiha", "place_type": "archaeological_site", "date_start": null, "date_end": null, "date_precision": "period_only", "date_label": null, "elevation_m": null}}, {"type": "Feature", "id": "0028049d-7eb4-4514-a423-4352baefbcd2", "geometry": {"type": "Point", "coordinates": [-91.78492, 16.12894]}, "properties": {"_entity_id": "0028049d-7eb4-4514-a423-4352baefbcd2", "name": "Chinkultic", "place_type": "archaeological_site", "date_start": null, "date_end": null, "date_precision": "period_only", "date_label": null, "elevation_m": null}}, {"type": "Feature", "id": "52a6753d-cb4f-4614-b7a8-d7b18805a5e3", "geometry": {"type": "Point", "coordinates": [-89.19963, 17.62419]}, "properties": {"_entity_id": "52a6753d-cb4f-4614-b7a8-d7b18805a5e3", "name": "Chochkitam", "place_type": "archaeological_site", "date_start": null, "date_end": null, "date_precision": "period_only", "date_label": null, "elevation_m": null}}, {"type": "Feature", "id": "789ef611-ef83-44c5-ab0f-0cf2e0b5bda1", "geometry": {"type": "Point", "coordinates": [-89.21635, 17.16921]}, "properties": {"_entity_id": "789ef611-ef83-44c5-ab0f-0cf2e0b5bda1", "name": "Chunhuitz", "place_type": "archaeological_site", "date_start": null, "date_end": null, "date_precision": "period_only", "date_label": null, "elevation_m": null}}, {"type": "Feature", "id": "47891d7b-7ec7-4353-ae8a-5b9b3da794e7", "geometry": {"type": "Point", "coordinates": [-89.259167, 17.3675]}, "properties": {"_entity_id": "47891d7b-7ec7-4353-ae8a-5b9b3da794e7", "name": "CivalSibal", "place_type": "archaeological_site", "date_start": null, "date_end": null, "date_precision": "period_only", "date_label": null, "elevation_m": null}}, {"type": "Feature", "id": "6e076ba5-b830-4454-aa7a-64a10b8343f3", "geometry": {"type": "Point", "coordinates": [-87.732332, 20.49004]}, "properties": {"_entity_id": "6e076ba5-b830-4454-aa7a-64a10b8343f3", "name": "CobaNohoch Mul", "place_type": "archaeological_site", "date_start": null, "date_end": null, "date_precision": "period_only", "date_label": null, "elevation_m": null}}, {"type": "Feature", "id": "26c9ae4d-c48f-4aa8-9ae9-06083ae07bc1", "geometry": {"type": "Point", "coordinates": [-93.201341, 18.28001]}, "properties": {"_entity_id": "26c9ae4d-c48f-4aa8-9ae9-06083ae07bc1", "name": "Comalcalco", "place_type": "archaeological_site", "date_start": null, "date_end": null, "date_precision": "period_only", "date_label": null, "elevation_m": null}}, {"type": "Feature", "id": "8122eeca-59ae-4e7a-8790-99d7654f8e62", "geometry": {"type": "Point", "coordinates": [-89.141233, 14.837622]}, "properties": {"_entity_id": "8122eeca-59ae-4e7a-8790-99d7654f8e62", "name": "Copan", "place_type": "archaeological_site", "date_start": null, "date_end": null, "date_precision": "period_only", "date_label": null, "elevation_m": null}}, {"type": "Feature", "id": "40044547-89a5-49fd-998d-c5b7724be2ff", "geometry": {"type": "Point", "coordinates": [-90.00454, 16.89534]}, "properties": {"_entity_id": "40044547-89a5-49fd-998d-c5b7724be2ff", "name": "Cueva de Galon", "place_type": "archaeological_site", "date_start": null, "date_end": null, "date_precision": "period_only", "date_label": null, "elevation_m": null}}, {"type": "Feature", "id": "cd69311b-a490-403e-adcd-d9b2bcb4ba20", "geometry": {"type": "Point", "coordinates": [-89.277256, 18.253351]}, "properties": {"_entity_id": "cd69311b-a490-403e-adcd-d9b2bcb4ba20", "name": "Cueva de la Virgencita", "place_type": "archaeological_site", "date_start": null, "date_end": null, "date_precision": "period_only", "date_label": null, "elevation_m": null}}, {"type": "Feature", "id": "cbd12ec1-bc0b-4dd8-94c4-109f2eb40632", "geometry": {"type": "Point", "coordinates": [-89.059982, 17.01805]}, "properties": {"_entity_id": "cbd12ec1-bc0b-4dd8-94c4-109f2eb40632", "name": "Cuychen", "place_type": "archaeological_site", "date_start": null, "date_end": null, "date_precision": "period_only", "date_label": null, "elevation_m": null}}, {"type": "Feature", "id": "7f9b5ac9-5ae1-472e-9c91-0f07af99fa99", "geometry": {"type": "Point", "coordinates": [-90.981059, 16.798796]}, "properties": {"_entity_id": "7f9b5ac9-5ae1-472e-9c91-0f07af99fa99", "name": "Dos Caobas", "place_type": "archaeological_site", "date_start": null, "date_end": null, "date_precision": "period_only", "date_label": null, "elevation_m": null}}, {"type": "Feature", "id": "f372a636-d0f6-42be-a072-37422e5ab567", "geometry": {"type": "Point", "coordinates": [-90.29583, 16.44583]}, "properties": {"_entity_id": "f372a636-d0f6-42be-a072-37422e5ab567", "name": "Dos Pilas", "place_type": "archaeological_site", "date_start": null, "date_end": null, "date_precision": "period_only", "date_label": null, "elevation_m": null}}, {"type": "Feature", "id": "a196717a-0a6e-4d97-9c1d-dd1947fed509", "geometry": {"type": "Point", "coordinates": [-89.910491, 19.693113]}, "properties": {"_entity_id": "a196717a-0a6e-4d97-9c1d-dd1947fed509", "name": "Dzehkabtun", "place_type": "archaeological_site", "date_start": null, "date_end": null, "date_precision": "period_only", "date_label": null, "elevation_m": null}}, {"type": "Feature", "id": "c8130a60-9ca7-4f90-8423-6092283f505e", "geometry": {"type": "Point", "coordinates": [-89.596431, 21.091357]}, "properties": {"_entity_id": "c8130a60-9ca7-4f90-8423-6092283f505e", "name": "Dzibilchaltun", "place_type": "archaeological_site", "date_start": null, "date_end": null, "date_precision": "period_only", "date_label": null, "elevation_m": null}}, {"type": "Feature", "id": "6dcde0a2-a626-4bde-9101-19871624b8bc", "geometry": {"type": "Point", "coordinates": [-89.594867, 19.578209]}, "properties": {"_entity_id": "6dcde0a2-a626-4bde-9101-19871624b8bc", "name": "Dzibilnocac", "place_type": "archaeological_site", "date_start": null, "date_end": null, "date_precision": "period_only", "date_label": null, "elevation_m": null}}, {"type": "Feature", "id": "e628498b-1ec0-42ea-8f0a-a6f13b489e97", "geometry": {"type": "Point", "coordinates": [-88.92994, 21.28144]}, "properties": {"_entity_id": "e628498b-1ec0-42ea-8f0a-a6f13b489e97", "name": "Dzilam", "place_type": "archaeological_site", "date_start": null, "date_end": null, "date_precision": "period_only", "date_label": null, "elevation_m": null}}, {"type": "Feature", "id": "a4037707-10ca-4ad9-a0f1-c51b47650678", "geometry": {"type": "Point", "coordinates": [-88.883333, 16.75]}, "properties": {"_entity_id": "a4037707-10ca-4ad9-a0f1-c51b47650678", "name": "Eduardo Quiroz Cave", "place_type": "archaeological_site", "date_start": null, "date_end": null, "date_precision": "period_only", "date_label": null, "elevation_m": null}}, {"type": "Feature", "id": "afb9e819-c0b4-41c6-bd55-ea7363625a97", "geometry": {"type": "Point", "coordinates": [-90.230109, 19.597036]}, "properties": {"_entity_id": "afb9e819-c0b4-41c6-bd55-ea7363625a97", "name": "Edzna", "place_type": "archaeological_site", "date_start": null, "date_end": null, "date_precision": "period_only", "date_label": null, "elevation_m": null}}, {"type": "Feature", "id": "5f9d32fd-e735-4a07-9207-5f781b47e004", "geometry": {"type": "Point", "coordinates": [-88.136312, 20.890692]}, "properties": {"_entity_id": "5f9d32fd-e735-4a07-9207-5f781b47e004", "name": "Ek Balam", "place_type": "archaeological_site", "date_start": null, "date_end": null, "date_precision": "period_only", "date_label": null, "elevation_m": null}}, {"type": "Feature", "id": "51c9be3e-9308-4016-acf5-18aff9d0da07", "geometry": {"type": "Point", "coordinates": [-88.80487, 15.103761]}, "properties": {"_entity_id": "51c9be3e-9308-4016-acf5-18aff9d0da07", "name": "Abra, El", "place_type": "archaeological_site", "date_start": null, "date_end": null, "date_precision": "period_only", "date_label": null, "elevation_m": null}}, {"type": "Feature", "id": "89b93b44-d3c8-4c2e-a33e-697fc004dd98", "geometry": {"type": "Point", "coordinates": [-91.82478, 16.5344]}, "properties": {"_entity_id": "89b93b44-d3c8-4c2e-a33e-697fc004dd98", "name": "Amparo, El", "place_type": "archaeological_site", "date_start": null, "date_end": null, "date_precision": "period_only", "date_label": null, "elevation_m": null}}, {"type": "Feature", "id": "0fdc0f4d-f896-4d5e-83e8-fee6bdc75ef5", "geometry": {"type": "Point", "coordinates": [-89.46, 16.77167]}, "properties": {"_entity_id": "0fdc0f4d-f896-4d5e-83e8-fee6bdc75ef5", "name": "Camalote Dolores, El", "place_type": "archaeological_site", "date_start": null, "date_end": null, "date_precision": "period_only", "date_label": null, "elevation_m": null}}, {"type": "Feature", "id": "495277a1-9134-4f6f-8b45-95be07cf4b1a", "geometry": {"type": "Point", "coordinates": [-91.21247, 17.06436]}, "properties": {"_entity_id": "495277a1-9134-4f6f-8b45-95be07cf4b1a", "name": "Cayo, El", "place_type": "archaeological_site", "date_start": null, "date_end": null, "date_precision": "period_only", "date_label": null, "elevation_m": null}}, {"type": "Feature", "id": "93bfec5f-41fd-41ec-8d91-bcad1d71f0ac", "geometry": {"type": "Point", "coordinates": [-91.11824, 16.95522]}, "properties": {"_entity_id": "93bfec5f-41fd-41ec-8d91-bcad1d71f0ac", "name": "Chicozapote, El", "place_type": "archaeological_site", "date_start": null, "date_end": null, "date_precision": "period_only", "date_label": null, "elevation_m": null}}, {"type": "Feature", "id": "794d1f39-c3ce-4022-aa18-a4a4e30afc32", "geometry": {"type": "Point", "coordinates": [-89.560915, 16.813609]}, "properties": {"_entity_id": "794d1f39-c3ce-4022-aa18-a4a4e30afc32", "name": "Chilonche, El", "place_type": "archaeological_site", "date_start": null, "date_end": null, "date_precision": "period_only", "date_label": null, "elevation_m": null}}, {"type": "Feature", "id": "3eff62b3-29ae-4dc9-a0ac-00645f216f63", "geometry": {"type": "Point", "coordinates": [-90.574333, 16.642167]}, "properties": {"_entity_id": "3eff62b3-29ae-4dc9-a0ac-00645f216f63", "name": "Chorro, El", "place_type": "archaeological_site", "date_start": null, "date_end": null, "date_precision": "period_only", "date_label": null, "elevation_m": null}}, {"type": "Feature", "id": "1f8f51ff-0dff-4276-8a34-07e8979e133f", "geometry": {"type": "Point", "coordinates": [-89.562778, 17.273611]}, "properties": {"_entity_id": "1f8f51ff-0dff-4276-8a34-07e8979e133f", "name": "Encanto, El", "place_type": "archaeological_site", "date_start": null, "date_end": null, "date_precision": "period_only", "date_label": null, "elevation_m": null}}, {"type": "Feature", "id": "eec3b49d-f37c-438a-918d-01331e481bde", "geometry": {"type": "Point", "coordinates": [-90.227732, 16.425734]}, "properties": {"_entity_id": "eec3b49d-f37c-438a-918d-01331e481bde", "name": "Excavado, El", "place_type": "archaeological_site", "date_start": null, "date_end": null, "date_precision": "period_only", "date_label": null, "elevation_m": null}}, {"type": "Feature", "id": "b15d1e0a-dd12-4d5a-a255-329382a646dc", "geometry": {"type": "Point", "coordinates": [-89.48325, 17.827556]}, "properties": {"_entity_id": "b15d1e0a-dd12-4d5a-a255-329382a646dc", "name": "Gallinero, El", "place_type": "archaeological_site", "date_start": null, "date_end": null, "date_precision": "period_only", "date_label": null, "elevation_m": null}}, {"type": "Feature", "id": "a92e1227-cbe4-4d24-a012-f2c3487a074f", "geometry": {"type": "Point", "coordinates": [-89.266667, 17.981667]}, "properties": {"_entity_id": "a92e1227-cbe4-4d24-a012-f2c3487a074f", "name": "Mameyal, El", "place_type": "archaeological_site", "date_start": null, "date_end": null, "date_precision": "period_only", "date_label": null, "elevation_m": null}}, {"type": "Feature", "id": "b130a36f-4e39-4d40-9d45-2968f6da93ab", "geometry": {"type": "Point", "coordinates": [-89.43583, 17.69057]}, "properties": {"_entity_id": "b130a36f-4e39-4d40-9d45-2968f6da93ab", "name": "Manantial, El", "place_type": "archaeological_site", "date_start": null, "date_end": null, "date_precision": "period_only", "date_label": null, "elevation_m": null}}, {"type": "Feature", "id": "fb6926e9-55b0-4ac7-bb82-4fc1399754b3", "geometry": {"type": "Point", "coordinates": [-86.803912, 21.211155]}, "properties": {"_entity_id": "fb6926e9-55b0-4ac7-bb82-4fc1399754b3", "name": "Meco, El", "place_type": "archaeological_site", "date_start": null, "date_end": null, "date_precision": "period_only", "date_label": null, "elevation_m": null}}, {"type": "Feature", "id": "4edaa7ff-138c-40d1-b4c1-42ab4d1de003", "geometry": {"type": "Point", "coordinates": [-89.92088, 17.756111]}, "properties": {"_entity_id": "4edaa7ff-138c-40d1-b4c1-42ab4d1de003", "name": "Mirador, El", "place_type": "archaeological_site", "date_start": null, "date_end": null, "date_precision": "period_only", "date_label": null, "elevation_m": null}}, {"type": "Feature", "id": "885d2ffa-252e-460d-851f-ffe993bc6e98", "geometry": {"type": "Point", "coordinates": [-90.57001, 16.472121]}, "properties": {"_entity_id": "885d2ffa-252e-460d-851f-ffe993bc6e98", "name": "Pabell\u00c3\u00b3n, El", "place_type": "archaeological_site", "date_start": null, "date_end": null, "date_precision": "period_only", "date_label": null, "elevation_m": null}}, {"type": "Feature", "id": "1cc7bfb7-f672-4dab-a124-0f3865eba144", "geometry": {"type": "Point", "coordinates": [-89.337349, 18.077787]}, "properties": {"_entity_id": "1cc7bfb7-f672-4dab-a124-0f3865eba144", "name": "Palmar, El", "place_type": "archaeological_site", "date_start": null, "date_end": null, "date_precision": "period_only", "date_label": null, "elevation_m": null}}, {"type": "Feature", "id": "316121f3-e12b-4dfd-81a7-ac20296a4e21", "geometry": {"type": "Point", "coordinates": [-90.35578, 17.26606]}, "properties": {"_entity_id": "316121f3-e12b-4dfd-81a7-ac20296a4e21", "name": "Peru, El", "place_type": "archaeological_site", "date_start": null, "date_end": null, "date_precision": "period_only", "date_label": null, "elevation_m": null}}, {"type": "Feature", "id": "5a6de95e-7cf3-4a6f-9557-150bbff38262", "geometry": {"type": "Point", "coordinates": [-90.26079, 15.04745]}, "properties": {"_entity_id": "5a6de95e-7cf3-4a6f-9557-150bbff38262", "name": "Port\u00c3\u00b3n, El", "place_type": "archaeological_site", "date_start": null, "date_end": null, "date_precision": "period_only", "date_label": null, "elevation_m": null}}, {"type": "Feature", "id": "cb464099-ea15-49a7-ab7c-15dabf8b7ada", "geometry": {"type": "Point", "coordinates": [-92.328758, 17.455145]}, "properties": {"_entity_id": "cb464099-ea15-49a7-ab7c-15dabf8b7ada", "name": "Porvenir, El", "place_type": "archaeological_site", "date_start": null, "date_end": null, "date_precision": "period_only", "date_label": null, "elevation_m": null}}, {"type": "Feature", "id": "457d785d-71be-4480-8661-c3c2e65fef83", "geometry": {"type": "Point", "coordinates": [-88.791041, 15.110079]}, "properties": {"_entity_id": "457d785d-71be-4480-8661-c3c2e65fef83", "name": "Puente, El", "place_type": "archaeological_site", "date_start": null, "date_end": null, "date_precision": "period_only", "date_label": null, "elevation_m": null}}, {"type": "Feature", "id": "cfe7fa41-42b9-4d25-a52c-afe384d076b2", "geometry": {"type": "Point", "coordinates": [-90.449167, 16.844444]}, "properties": {"_entity_id": "cfe7fa41-42b9-4d25-a52c-afe384d076b2", "name": "Reinado, El", "place_type": "archaeological_site", "date_start": null, "date_end": null, "date_precision": "period_only", "date_label": null, "elevation_m": null}}, {"type": "Feature", "id": "944170eb-9b2d-4166-a9cf-811227faf0ea", "geometry": {"type": "Point", "coordinates": [-88.786667, 18.771389]}, "properties": {"_entity_id": "944170eb-9b2d-4166-a9cf-811227faf0ea", "name": "Resbalon, El", "place_type": "archaeological_site", "date_start": null, "date_end": null, "date_precision": "period_only", "date_label": null, "elevation_m": null}}, {"type": "Feature", "id": "3b7c54c0-8b8b-4ba5-a4c8-7d946e8404b6", "geometry": {"type": "Point", "coordinates": [-92.261839, 17.523793]}, "properties": {"_entity_id": "3b7c54c0-8b8b-4ba5-a4c8-7d946e8404b6", "name": "Retiro, El", "place_type": "archaeological_site", "date_start": null, "date_end": null, "date_precision": "period_only", "date_label": null, "elevation_m": null}}, {"type": "Feature", "id": "15d59838-f9aa-4430-aaf8-1fa6ce47601f", "geometry": {"type": "Point", "coordinates": [-86.7813, 21.061616]}, "properties": {"_entity_id": "15d59838-f9aa-4430-aaf8-1fa6ce47601f", "name": "Rey, El", "place_type": "archaeological_site", "date_start": null, "date_end": null, "date_precision": "period_only", "date_label": null, "elevation_m": null}}, {"type": "Feature", "id": "e31db0ed-7852-4c9e-bad5-a6d9ec0416fd", "geometry": {"type": "Point", "coordinates": [-90.105057, 20.147173]}, "properties": {"_entity_id": "e31db0ed-7852-4c9e-bad5-a6d9ec0416fd", "name": "Rosal, El", "place_type": "archaeological_site", "date_start": null, "date_end": null, "date_precision": "period_only", "date_label": null, "elevation_m": null}}, {"type": "Feature", "id": "6f207620-a6a2-43ac-8b4b-c8592db4b5ed", "geometry": {"type": "Point", "coordinates": [-89.78472, 19.49917]}, "properties": {"_entity_id": "6f207620-a6a2-43ac-8b4b-c8592db4b5ed", "name": "Tabasque\u00c3\u00b1o, El", "place_type": "archaeological_site", "date_start": null, "date_end": null, "date_precision": "period_only", "date_label": null, "elevation_m": null}}, {"type": "Feature", "id": "f05e28f5-fef0-46ad-8af9-8b4052589e91", "geometry": {"type": "Point", "coordinates": [-89.611667, 17.061667]}, "properties": {"_entity_id": "f05e28f5-fef0-46ad-8af9-8b4052589e91", "name": "Temblor, El", "place_type": "archaeological_site", "date_start": null, "date_end": null, "date_precision": "period_only", "date_label": null, "elevation_m": null}}, {"type": "Feature", "id": "9bcaf3f0-5719-4234-a6c7-5ee82f3336c5", "geometry": {"type": "Point", "coordinates": [-92.569127, 17.686038]}, "properties": {"_entity_id": "9bcaf3f0-5719-4234-a6c7-5ee82f3336c5", "name": "Tortuguero, El", "place_type": "archaeological_site", "date_start": null, "date_end": null, "date_precision": "period_only", "date_label": null, "elevation_m": null}}, {"type": "Feature", "id": "ff65dd23-136b-4259-bea8-62df43adc445", "geometry": {"type": "Point", "coordinates": [-89.86694, 18.32667]}, "properties": {"_entity_id": "ff65dd23-136b-4259-bea8-62df43adc445", "name": "Zacatal, El", "place_type": "archaeological_site", "date_start": null, "date_end": null, "date_precision": "period_only", "date_label": null, "elevation_m": null}}, {"type": "Feature", "id": "c938e856-c021-44b5-b3d1-3b93b448b787", "geometry": {"type": "Point", "coordinates": [-89.64349, 17.02105]}, "properties": {"_entity_id": "c938e856-c021-44b5-b3d1-3b93b448b787", "name": "Zapote, El", "place_type": "archaeological_site", "date_start": null, "date_end": null, "date_precision": "period_only", "date_label": null, "elevation_m": null}}, {"type": "Feature", "id": "f65e9ec9-b11e-48d7-a283-3c980129ab6a", "geometry": {"type": "Point", "coordinates": [-89.82155, 17.23372]}, "properties": {"_entity_id": "f65e9ec9-b11e-48d7-a283-3c980129ab6a", "name": "Zotz, El", "place_type": "archaeological_site", "date_start": null, "date_end": null, "date_precision": "period_only", "date_label": null, "elevation_m": null}}, {"type": "Feature", "id": "8fbf413e-7f47-4bf0-b69e-dba203a7b9e0", "geometry": {"type": "Point", "coordinates": [-89.891576, 16.930194]}, "properties": {"_entity_id": "8fbf413e-7f47-4bf0-b69e-dba203a7b9e0", "name": "Flores", "place_type": "archaeological_site", "date_start": null, "date_end": null, "date_precision": "period_only", "date_label": null, "elevation_m": null}}, {"type": "Feature", "id": "655e8592-7a5a-4902-88de-a14fc25145dc", "geometry": {"type": "Point", "coordinates": [-89.692545, 20.805382]}, "properties": {"_entity_id": "655e8592-7a5a-4902-88de-a14fc25145dc", "name": "Hacienda Hotzuc", "place_type": "archaeological_site", "date_start": null, "date_end": null, "date_precision": "period_only", "date_label": null, "elevation_m": null}}, {"type": "Feature", "id": "a7351bb9-9942-468b-8600-7223a9ef1fdd", "geometry": {"type": "Point", "coordinates": [-88.536227, 20.690021]}, "properties": {"_entity_id": "a7351bb9-9942-468b-8600-7223a9ef1fdd", "name": "Halakal", "place_type": "archaeological_site", "date_start": null, "date_end": null, "date_precision": "period_only", "date_label": null, "elevation_m": null}}, {"type": "Feature", "id": "f00e3d80-2ef7-4788-a146-5cb2ed133e8b", "geometry": {"type": "Point", "coordinates": [-90.48769, 19.54863]}, "properties": {"_entity_id": "f00e3d80-2ef7-4788-a146-5cb2ed133e8b", "name": "Hobomo", "place_type": "archaeological_site", "date_start": null, "date_end": null, "date_precision": "period_only", "date_label": null, "elevation_m": null}}, {"type": "Feature", "id": "592fe2e6-23cb-4f78-bccc-148e7a259da9", "geometry": {"type": "Point", "coordinates": [-89.770851, 19.408825]}, "properties": {"_entity_id": "592fe2e6-23cb-4f78-bccc-148e7a259da9", "name": "Hochob", "place_type": "archaeological_site", "date_start": null, "date_end": null, "date_precision": "period_only", "date_label": null, "elevation_m": null}}, {"type": "Feature", "id": "bb7fa082-aa56-42f2-9193-1e07c3a8d530", "geometry": {"type": "Point", "coordinates": [-89.27306, 17.31194]}, "properties": {"_entity_id": "bb7fa082-aa56-42f2-9193-1e07c3a8d530", "name": "Holmul", "place_type": "archaeological_site", "date_start": null, "date_end": null, "date_precision": "period_only", "date_label": null, "elevation_m": null}}, {"type": "Feature", "id": "632253c4-8d2b-4cf8-b135-6ec694bcd08e", "geometry": {"type": "Point", "coordinates": [-89.493056, 18.409722]}, "properties": {"_entity_id": "632253c4-8d2b-4cf8-b135-6ec694bcd08e", "name": "Hormiguero", "place_type": "archaeological_site", "date_start": null, "date_end": null, "date_precision": "period_only", "date_label": null, "elevation_m": null}}, {"type": "Feature", "id": "6abeb4f6-2674-4e78-a5bb-5063d83c9702", "geometry": {"type": "Point", "coordinates": [-90.028333, 17.095278]}, "properties": {"_entity_id": "6abeb4f6-2674-4e78-a5bb-5063d83c9702", "name": "Huacutal", "place_type": "archaeological_site", "date_start": null, "date_end": null, "date_precision": "period_only", "date_label": null, "elevation_m": null}}, {"type": "Feature", "id": "e97cb1b3-290e-415e-a2a6-3e7c780898bc", "geometry": {"type": "Point", "coordinates": [-90.319565, 15.677686]}, "properties": {"_entity_id": "e97cb1b3-290e-415e-a2a6-3e7c780898bc", "name": "Hun Nal Ye", "place_type": "archaeological_site", "date_start": null, "date_end": null, "date_precision": "period_only", "date_label": null, "elevation_m": null}}, {"type": "Feature", "id": "46c31654-b0c1-4d6f-a957-8a21dcc46cc2", "geometry": {"type": "Point", "coordinates": [-89.588195, 20.122131]}, "properties": {"_entity_id": "46c31654-b0c1-4d6f-a957-8a21dcc46cc2", "name": "Huntichmul", "place_type": "archaeological_site", "date_start": null, "date_end": null, "date_precision": "period_only", "date_label": null, "elevation_m": null}}, {"type": "Feature", "id": "efa340b0-0256-42eb-9d98-5766fc60d8c5", "geometry": {"type": "Point", "coordinates": [-88.38127, 20.857557]}, "properties": {"_entity_id": "efa340b0-0256-42eb-9d98-5766fc60d8c5", "name": "IchmulIchmul de Morley = Kumche", "place_type": "archaeological_site", "date_start": null, "date_end": null, "date_precision": "period_only", "date_label": null, "elevation_m": null}}, {"type": "Feature", "id": "82f3e88f-b689-40d5-8545-375e042d12e2", "geometry": {"type": "Point", "coordinates": [-88.814352, 20.614311]}, "properties": {"_entity_id": "82f3e88f-b689-40d5-8545-375e042d12e2", "name": "IkilIki", "place_type": "archaeological_site", "date_start": null, "date_end": null, "date_precision": "period_only", "date_label": null, "elevation_m": null}}, {"type": "Feature", "id": "83dfb6e0-3f05-4925-baff-2dd80cead218", "geometry": {"type": "Point", "coordinates": [-90.466667, 16.566667]}, "properties": {"_entity_id": "83dfb6e0-3f05-4925-baff-2dd80cead218", "name": "Itzan", "place_type": "archaeological_site", "date_start": null, "date_end": null, "date_precision": "period_only", "date_label": null, "elevation_m": null}}, {"type": "Feature", "id": "59beef8a-24b5-4723-b888-e5ae0ee18efb", "geometry": {"type": "Point", "coordinates": [-89.7281, 20.01773]}, "properties": {"_entity_id": "59beef8a-24b5-4723-b888-e5ae0ee18efb", "name": "Itzimte-Bolonchen", "place_type": "archaeological_site", "date_start": null, "date_end": null, "date_precision": "period_only", "date_label": null, "elevation_m": null}}, {"type": "Feature", "id": "8cfe08a0-8bc4-455f-82b5-44e427f04923", "geometry": {"type": "Point", "coordinates": [-89.409568, 16.573896]}, "properties": {"_entity_id": "8cfe08a0-8bc4-455f-82b5-44e427f04923", "name": "Ixkun", "place_type": "archaeological_site", "date_start": null, "date_end": null, "date_precision": "period_only", "date_label": null, "elevation_m": null}}, {"type": "Feature", "id": "02185bc6-dd0d-40d6-b116-33d2684db2af", "geometry": {"type": "Point", "coordinates": [-89.68702, 16.97843]}, "properties": {"_entity_id": "02185bc6-dd0d-40d6-b116-33d2684db2af", "name": "Ixlu", "place_type": "archaeological_site", "date_start": null, "date_end": null, "date_precision": "period_only", "date_label": null, "elevation_m": null}}, {"type": "Feature", "id": "64c0af3e-de57-46f9-9d7d-0b25af8345c4", "geometry": {"type": "Point", "coordinates": [-89.395934, 16.510148]}, "properties": {"_entity_id": "64c0af3e-de57-46f9-9d7d-0b25af8345c4", "name": "Ixtonton", "place_type": "archaeological_site", "date_start": null, "date_end": null, "date_precision": "period_only", "date_label": null, "elevation_m": null}}, {"type": "Feature", "id": "f4e5fa24-ee02-4fd1-8866-4e83e486b19e", "geometry": {"type": "Point", "coordinates": [-89.478321, 16.472963]}, "properties": {"_entity_id": "f4e5fa24-ee02-4fd1-8866-4e83e486b19e", "name": "Ixtutz", "place_type": "archaeological_site", "date_start": null, "date_end": null, "date_precision": "period_only", "date_label": null, "elevation_m": null}}, {"type": "Feature", "id": "cc434f1d-e935-4b69-b995-e1db17f3374e", "geometry": {"type": "Point", "coordinates": [-90.486523, 20.209341]}, "properties": {"_entity_id": "cc434f1d-e935-4b69-b995-e1db17f3374e", "name": "Jaina", "place_type": "archaeological_site", "date_start": null, "date_end": null, "date_precision": "period_only", "date_label": null, "elevation_m": null}}, {"type": "Feature", "id": "bb75bf10-c7a3-41c0-94be-c8e4372652a7", "geometry": {"type": "Point", "coordinates": [-89.611944, 17.2825]}, "properties": {"_entity_id": "bb75bf10-c7a3-41c0-94be-c8e4372652a7", "name": "Jimbal", "place_type": "archaeological_site", "date_start": null, "date_end": null, "date_precision": "period_only", "date_label": null, "elevation_m": null}}, {"type": "Feature", "id": "cbfad640-02d6-4637-9e42-91d36c0c8862", "geometry": {"type": "Point", "coordinates": [-92.321555, 17.351417]}, "properties": {"_entity_id": "cbfad640-02d6-4637-9e42-91d36c0c8862", "name": "Jolja", "place_type": "archaeological_site", "date_start": null, "date_end": null, "date_precision": "period_only", "date_label": null, "elevation_m": null}}, {"type": "Feature", "id": "a99d6100-dcd6-4bb0-adfe-cbfd6f023e60", "geometry": {"type": "Point", "coordinates": [-88.72972, 17.81611]}, "properties": {"_entity_id": "a99d6100-dcd6-4bb0-adfe-cbfd6f023e60", "name": "Ka'Kabish", "place_type": "archaeological_site", "date_start": null, "date_end": null, "date_precision": "period_only", "date_label": null, "elevation_m": null}}, {"type": "Feature", "id": "38ed1f49-1418-4b67-ac8c-86b03827dd7b", "geometry": {"type": "Point", "coordinates": [-89.647778, 20.248921]}, "properties": {"_entity_id": "38ed1f49-1418-4b67-ac8c-86b03827dd7b", "name": "Kabah", "place_type": "archaeological_site", "date_start": null, "date_end": null, "date_precision": "period_only", "date_label": null, "elevation_m": null}}, {"type": "Feature", "id": "0dd5e408-8b3d-46bb-8bb6-f0affb382fb3", "geometry": {"type": "Point", "coordinates": [-90.54847, 14.631257]}, "properties": {"_entity_id": "0dd5e408-8b3d-46bb-8bb6-f0affb382fb3", "name": "Kaminaljuyu", "place_type": "archaeological_site", "date_start": null, "date_end": null, "date_precision": "period_only", "date_label": null, "elevation_m": null}}, {"type": "Feature", "id": "67a7f894-ea79-4009-9b24-80738c911295", "geometry": {"type": "Point", "coordinates": [-90.14098, 19.66817]}, "properties": {"_entity_id": "67a7f894-ea79-4009-9b24-80738c911295", "name": "Kayal", "place_type": "archaeological_site", "date_start": null, "date_end": null, "date_precision": "period_only", "date_label": null, "elevation_m": null}}, {"type": "Feature", "id": "f58ec017-77f2-4f3e-ac3c-64aac0d7263f", "geometry": {"type": "Point", "coordinates": [-88.366402, 16.822541]}, "properties": {"_entity_id": "f58ec017-77f2-4f3e-ac3c-64aac0d7263f", "name": "Kendal", "place_type": "archaeological_site", "date_start": null, "date_end": null, "date_precision": "period_only", "date_label": null, "elevation_m": null}}, {"type": "Feature", "id": "0081081d-0b8f-46b7-a83b-038ed0979e11", "geometry": {"type": "Point", "coordinates": [-88.46698, 17.996041]}, "properties": {"_entity_id": "0081081d-0b8f-46b7-a83b-038ed0979e11", "name": "Kichpanha", "place_type": "archaeological_site", "date_start": null, "date_end": null, "date_precision": "period_only", "date_label": null, "elevation_m": null}}, {"type": "Feature", "id": "a881b834-6fb0-47aa-ac75-8edbd835dd2b", "geometry": {"type": "Point", "coordinates": [-89.245351, 17.69965]}, "properties": {"_entity_id": "a881b834-6fb0-47aa-ac75-8edbd835dd2b", "name": "Kinal", "place_type": "archaeological_site", "date_start": null, "date_end": null, "date_precision": "period_only", "date_label": null, "elevation_m": null}}, {"type": "Feature", "id": "42353bca-409b-4494-9c01-ed38f418e862", "geometry": {"type": "Point", "coordinates": [-89.551165, 20.096485]}, "properties": {"_entity_id": "42353bca-409b-4494-9c01-ed38f418e862", "name": "Kiuic", "place_type": "archaeological_site", "date_start": null, "date_end": null, "date_precision": "period_only", "date_label": null, "elevation_m": null}}, {"type": "Feature", "id": "625e91ca-2053-4e75-8c5d-779debcfc0dd", "geometry": {"type": "Point", "coordinates": [-88.79079, 18.41966]}, "properties": {"_entity_id": "625e91ca-2053-4e75-8c5d-779debcfc0dd", "name": "Kohunlich", "place_type": "archaeological_site", "date_start": null, "date_end": null, "date_precision": "period_only", "date_label": null, "elevation_m": null}}, {"type": "Feature", "id": "f020375b-8b5d-4a4c-a51c-00c81837e48b", "geometry": {"type": "Point", "coordinates": [-90.42417, 16.52944]}, "properties": {"_entity_id": "f020375b-8b5d-4a4c-a51c-00c81837e48b", "name": "Amelia, La", "place_type": "archaeological_site", "date_start": null, "date_end": null, "date_precision": "period_only", "date_label": null, "elevation_m": null}}, {"type": "Feature", "id": "cfb1d338-49cc-42de-bdb0-745a885f5707", "geometry": {"type": "Point", "coordinates": [-90.372226, 17.519746]}, "properties": {"_entity_id": "cfb1d338-49cc-42de-bdb0-745a885f5707", "name": "Corona, La", "place_type": "archaeological_site", "date_start": null, "date_end": null, "date_precision": "period_only", "date_label": null, "elevation_m": null}}, {"type": "Feature", "id": "953d0154-c662-46a5-a486-8c26a45fbd63", "geometry": {"type": "Point", "coordinates": [-90.811744, 17.229708]}, "properties": {"_entity_id": "953d0154-c662-46a5-a486-8c26a45fbd63", "name": "Florida", "place_type": "archaeological_site", "date_start": null, "date_end": null, "date_precision": "period_only", "date_label": null, "elevation_m": null}}, {"type": "Feature", "id": "40570c5d-48d5-4837-ada0-40b3b4eb1451", "geometry": {"type": "Point", "coordinates": [-89.28288, 17.59798]}, "properties": {"_entity_id": "40570c5d-48d5-4837-ada0-40b3b4eb1451", "name": "Honradez", "place_type": "archaeological_site", "date_start": null, "date_end": null, "date_precision": "period_only", "date_label": null, "elevation_m": null}}, {"type": "Feature", "id": "1db9376a-d128-4f03-b10a-9b1af87753cc", "geometry": {"type": "Point", "coordinates": [-90.568789, 17.23769]}, "properties": {"_entity_id": "1db9376a-d128-4f03-b10a-9b1af87753cc", "name": "Joyanca, La", "place_type": "archaeological_site", "date_start": null, "date_end": null, "date_precision": "period_only", "date_label": null, "elevation_m": null}}, {"type": "Feature", "id": "1d05ccf8-f004-4f89-ad34-5481bb1c478e", "geometry": {"type": "Point", "coordinates": [-90.227358, 16.037312]}, "properties": {"_entity_id": "1d05ccf8-f004-4f89-ad34-5481bb1c478e", "name": "Linterna", "place_type": "archaeological_site", "date_start": null, "date_end": null, "date_precision": "period_only", "date_label": null, "elevation_m": null}}, {"type": "Feature", "id": "39315679-317c-4ece-84d3-8d3dc2d990e6", "geometry": {"type": "Point", "coordinates": [-91.41003, 17.11178]}, "properties": {"_entity_id": "39315679-317c-4ece-84d3-8d3dc2d990e6", "name": "Mar, LaRabbit Stone", "place_type": "archaeological_site", "date_start": null, "date_end": null, "date_precision": "period_only", "date_label": null, "elevation_m": null}}, {"type": "Feature", "id": "900996e4-c773-4020-ae23-842f59f886f2", "geometry": {"type": "Point", "coordinates": [-89.055833, 17.821111]}, "properties": {"_entity_id": "900996e4-c773-4020-ae23-842f59f886f2", "name": "Milpa, La", "place_type": "archaeological_site", "date_start": null, "date_end": null, "date_precision": "period_only", "date_label": null, "elevation_m": null}}, {"type": "Feature", "id": "1ca5e276-3d15-4815-959d-0d19fff65819", "geometry": {"type": "Point", "coordinates": [-89.988333, 17.208333]}, "properties": {"_entity_id": "1ca5e276-3d15-4815-959d-0d19fff65819", "name": "Montura", "place_type": "archaeological_site", "date_start": null, "date_end": null, "date_precision": "period_only", "date_label": null, "elevation_m": null}}, {"type": "Feature", "id": "79caf79b-1a81-47ea-887b-996ea69d1f6e", "geometry": {"type": "Point", "coordinates": [-89.612303, 18.219269]}, "properties": {"_entity_id": "79caf79b-1a81-47ea-887b-996ea69d1f6e", "name": "Mu\u00c3\u00b1eca", "place_type": "archaeological_site", "date_start": null, "date_end": null, "date_precision": "period_only", "date_label": null, "elevation_m": null}}, {"type": "Feature", "id": "5d768cfd-c63a-4787-a267-57fc1655030b", "geometry": {"type": "Point", "coordinates": [-89.47767, 17.01617]}, "properties": {"_entity_id": "5d768cfd-c63a-4787-a267-57fc1655030b", "name": "Naya, La", "place_type": "archaeological_site", "date_start": null, "date_end": null, "date_precision": "period_only", "date_label": null, "elevation_m": null}}, {"type": "Feature", "id": "662fc547-7582-4b9a-8128-fd5563499bd3", "geometry": {"type": "Point", "coordinates": [-91.055417, 16.990144]}, "properties": {"_entity_id": "662fc547-7582-4b9a-8128-fd5563499bd3", "name": "Pasadita, La", "place_type": "archaeological_site", "date_start": null, "date_end": null, "date_precision": "period_only", "date_label": null, "elevation_m": null}}, {"type": "Feature", "id": "9d6fbabf-bc33-4096-a058-3b3baf4c0751", "geometry": {"type": "Point", "coordinates": [-89.394, 17.109333]}, "properties": {"_entity_id": "9d6fbabf-bc33-4096-a058-3b3baf4c0751", "name": "Pochitoca, La", "place_type": "archaeological_site", "date_start": null, "date_end": null, "date_precision": "period_only", "date_label": null, "elevation_m": null}}, {"type": "Feature", "id": "2ee42763-d654-43a1-bb22-29348ab8e2e3", "geometry": {"type": "Point", "coordinates": [-89.201877, 16.799541]}, "properties": {"_entity_id": "2ee42763-d654-43a1-bb22-29348ab8e2e3", "name": "Rejolla", "place_type": "archaeological_site", "date_start": null, "date_end": null, "date_precision": "period_only", "date_label": null, "elevation_m": null}}, {"type": "Feature", "id": "fd5b4215-620d-45d2-9b55-edb140f1e816", "geometry": {"type": "Point", "coordinates": [-89.285166, 17.304166]}, "properties": {"_entity_id": "fd5b4215-620d-45d2-9b55-edb140f1e816", "name": "Sufricaya", "place_type": "archaeological_site", "date_start": null, "date_end": null, "date_precision": "period_only", "date_label": null, "elevation_m": null}}, {"type": "Feature", "id": "6a4d369c-867a-4dc8-ae9b-61229c77a751", "geometry": {"type": "Point", "coordinates": [-89.578687, 20.17246]}, "properties": {"_entity_id": "6a4d369c-867a-4dc8-ae9b-61229c77a751", "name": "Labna", "place_type": "archaeological_site", "date_start": null, "date_end": null, "date_precision": "period_only", "date_label": null, "elevation_m": null}}, {"type": "Feature", "id": "61e6ac80-8361-4dee-b884-9f8c61ba5941", "geometry": {"type": "Point", "coordinates": [-91.100146, 16.713757]}, "properties": {"_entity_id": "61e6ac80-8361-4dee-b884-9f8c61ba5941", "name": "Lacanha", "place_type": "archaeological_site", "date_start": null, "date_end": null, "date_precision": "period_only", "date_label": null, "elevation_m": null}}, {"type": "Feature", "id": "64f1aa0a-7a4e-4af0-9787-8476c0e9b0ed", "geometry": {"type": "Point", "coordinates": [-90.1855, 17.072833]}, "properties": {"_entity_id": "64f1aa0a-7a4e-4af0-9787-8476c0e9b0ed", "name": "Laguna Perdida", "place_type": "archaeological_site", "date_start": null, "date_end": null, "date_precision": "period_only", "date_label": null, "elevation_m": null}}, {"type": "Feature", "id": "a631e0cc-1d90-4510-abad-b7a2c9cdcfcf", "geometry": {"type": "Point", "coordinates": [-88.65299, 17.76505]}, "properties": {"_entity_id": "a631e0cc-1d90-4510-abad-b7a2c9cdcfcf", "name": "Lamanai", "place_type": "archaeological_site", "date_start": null, "date_end": null, "date_precision": "period_only", "date_label": null, "elevation_m": null}}, {"type": "Feature", "id": "5f795911-7652-4edb-a523-a88dd1419891", "geometry": {"type": "Point", "coordinates": [-91.089809, 16.981835]}, "properties": {"_entity_id": "5f795911-7652-4edb-a523-a88dd1419891", "name": "Lashtunich", "place_type": "archaeological_site", "date_start": null, "date_end": null, "date_precision": "period_only", "date_label": null, "elevation_m": null}}, {"type": "Feature", "id": "7350f303-4f4b-4996-b9ed-d295b2539e67", "geometry": {"type": "Point", "coordinates": [-89.45597, 20.25353]}, "properties": {"_entity_id": "7350f303-4f4b-4996-b9ed-d295b2539e67", "name": "Loltun", "place_type": "archaeological_site", "date_start": null, "date_end": null, "date_precision": "period_only", "date_label": null, "elevation_m": null}}, {"type": "Feature", "id": "d2bb7100-1523-45b9-839a-cea2a7715563", "geometry": {"type": "Point", "coordinates": [-89.20944, 17.98167]}, "properties": {"_entity_id": "d2bb7100-1523-45b9-839a-cea2a7715563", "name": "Alacranes, Los", "place_type": "archaeological_site", "date_start": null, "date_end": null, "date_precision": "period_only", "date_label": null, "elevation_m": null}}, {"type": "Feature", "id": "39237668-fdec-4e64-ba9f-3b21e1c4725f", "geometry": {"type": "Point", "coordinates": [-89.176769, 18.215362]}, "properties": {"_entity_id": "39237668-fdec-4e64-ba9f-3b21e1c4725f", "name": "Angeles, Los", "place_type": "archaeological_site", "date_start": null, "date_end": null, "date_precision": "period_only", "date_label": null, "elevation_m": null}}, {"type": "Feature", "id": "858d57b3-2e94-4af4-a89a-09f2783acc8b", "geometry": {"type": "Point", "coordinates": [-88.959555, 16.282028]}, "properties": {"_entity_id": "858d57b3-2e94-4af4-a89a-09f2783acc8b", "name": "Lubaantun", "place_type": "archaeological_site", "date_start": null, "date_end": null, "date_precision": "period_only", "date_label": null, "elevation_m": null}}, {"type": "Feature", "id": "02a1519c-2fb5-4f9b-a8a0-03dc6026173e", "geometry": {"type": "Point", "coordinates": [-89.865615, 16.325373]}, "properties": {"_entity_id": "02a1519c-2fb5-4f9b-a8a0-03dc6026173e", "name": "Machaquila", "place_type": "archaeological_site", "date_start": null, "date_end": null, "date_precision": "period_only", "date_label": null, "elevation_m": null}}, {"type": "Feature", "id": "bfd0c915-057c-4a0d-8cc8-8f0cd3744974", "geometry": {"type": "Point", "coordinates": [-89.460594, 20.629652]}, "properties": {"_entity_id": "bfd0c915-057c-4a0d-8cc8-8f0cd3744974", "name": "Mayapan", "place_type": "archaeological_site", "date_start": null, "date_end": null, "date_precision": "period_only", "date_label": null, "elevation_m": null}}, {"type": "Feature", "id": "67f2490b-cec5-4264-93be-aadf5f4d6896", "geometry": {"type": "Point", "coordinates": [-89.314546, 17.816304]}, "properties": {"_entity_id": "67f2490b-cec5-4264-93be-aadf5f4d6896", "name": "Monumento 104Aguada Cancuen", "place_type": "archaeological_site", "date_start": null, "date_end": null, "date_precision": "period_only", "date_label": null, "elevation_m": null}}, {"type": "Feature", "id": "3575e930-4206-44f8-adbd-a24dae63b244", "geometry": {"type": "Point", "coordinates": [-91.297661, 17.769255]}, "properties": {"_entity_id": "3575e930-4206-44f8-adbd-a24dae63b244", "name": "Moral", "place_type": "archaeological_site", "date_start": null, "date_end": null, "date_precision": "period_only", "date_label": null, "elevation_m": null}}, {"type": "Feature", "id": "a4a9b328-b9f6-4765-8e2c-7a1aa67a37a2", "geometry": {"type": "Point", "coordinates": [-89.90115, 17.026517]}, "properties": {"_entity_id": "a4a9b328-b9f6-4765-8e2c-7a1aa67a37a2", "name": "Motul de San Jose", "place_type": "archaeological_site", "date_start": null, "date_end": null, "date_precision": "period_only", "date_label": null, "elevation_m": null}}, {"type": "Feature", "id": "afbaccd7-1a39-4e66-a980-40d97d60d4c6", "geometry": {"type": "Point", "coordinates": [-89.049382, 16.789217]}, "properties": {"_entity_id": "afbaccd7-1a39-4e66-a980-40d97d60d4c6", "name": "Mountain Cow", "place_type": "archaeological_site", "date_start": null, "date_end": null, "date_precision": "period_only", "date_label": null, "elevation_m": null}}, {"type": "Feature", "id": "ae351101-5e31-46d3-9fa1-ec10850ade3c", "geometry": {"type": "Point", "coordinates": [-89.72847, 17.79405]}, "properties": {"_entity_id": "ae351101-5e31-46d3-9fa1-ec10850ade3c", "name": "Naachtun", "place_type": "archaeological_site", "date_start": null, "date_end": null, "date_precision": "period_only", "date_label": null, "elevation_m": null}}, {"type": "Feature", "id": "1cdc1c3c-b6f3-4a14-8d7c-a8a96ea9a4d6", "geometry": {"type": "Point", "coordinates": [-90.085833, 18.297222]}, "properties": {"_entity_id": "1cdc1c3c-b6f3-4a14-8d7c-a8a96ea9a4d6", "name": "Nadzbeiltun", "place_type": "archaeological_site", "date_start": null, "date_end": null, "date_precision": "period_only", "date_label": null, "elevation_m": null}}, {"type": "Feature", "id": "827a227e-6177-474a-b98e-8760bb77a818", "geometry": {"type": "Point", "coordinates": [-89.845908, 18.606966]}, "properties": {"_entity_id": "827a227e-6177-474a-b98e-8760bb77a818", "name": "Nadzcaan", "place_type": "archaeological_site", "date_start": null, "date_end": null, "date_precision": "period_only", "date_label": null, "elevation_m": null}}, {"type": "Feature", "id": "41014dca-1b58-4084-a54b-4d85a8b7f229", "geometry": {"type": "Point", "coordinates": [-89.259722, 16.275556]}, "properties": {"_entity_id": "41014dca-1b58-4084-a54b-4d85a8b7f229", "name": "Naj Tunich", "place_type": "archaeological_site", "date_start": null, "date_end": null, "date_precision": "period_only", "date_label": null, "elevation_m": null}}, {"type": "Feature", "id": "70e90bd2-2222-4cd9-9244-8c6796537aa0", "geometry": {"type": "Point", "coordinates": [-89.835159, 17.679911]}, "properties": {"_entity_id": "70e90bd2-2222-4cd9-9244-8c6796537aa0", "name": "Nakbe", "place_type": "archaeological_site", "date_start": null, "date_end": null, "date_precision": "period_only", "date_label": null, "elevation_m": null}}, {"type": "Feature", "id": "dd5aeaef-a19e-4e95-98cf-e1df7355bc21", "geometry": {"type": "Point", "coordinates": [-89.40514, 17.175941]}, "properties": {"_entity_id": "dd5aeaef-a19e-4e95-98cf-e1df7355bc21", "name": "Nakum", "place_type": "archaeological_site", "date_start": null, "date_end": null, "date_precision": "period_only", "date_label": null, "elevation_m": null}}, {"type": "Feature", "id": "e141103c-154a-4c0c-abe5-10773ce96199", "geometry": {"type": "Point", "coordinates": [-89.262047, 17.133511]}, "properties": {"_entity_id": "e141103c-154a-4c0c-abe5-10773ce96199", "name": "Naranjo", "place_type": "archaeological_site", "date_start": null, "date_end": null, "date_precision": "period_only", "date_label": null, "elevation_m": null}}, {"type": "Feature", "id": "74c76358-be9c-47f0-a93b-50812d5cd6ea", "geometry": {"type": "Point", "coordinates": [-88.824074, 16.321899]}, "properties": {"_entity_id": "74c76358-be9c-47f0-a93b-50812d5cd6ea", "name": "Nim Li Punit", "place_type": "archaeological_site", "date_start": null, "date_end": null, "date_precision": "period_only", "date_label": null, "elevation_m": null}}, {"type": "Feature", "id": "3d2af0ba-1d3a-4ffa-95e7-cb1e8512e3fb", "geometry": {"type": "Point", "coordinates": [-88.584749, 18.217315]}, "properties": {"_entity_id": "3d2af0ba-1d3a-4ffa-95e7-cb1e8512e3fb", "name": "Nohmul", "place_type": "archaeological_site", "date_start": null, "date_end": null, "date_precision": "period_only", "date_label": null, "elevation_m": null}}, {"type": "Feature", "id": "0033b4f9-2f13-4243-80a6-66290d29935d", "geometry": {"type": "Point", "coordinates": [-89.70597, 20.31428]}, "properties": {"_entity_id": "0033b4f9-2f13-4243-80a6-66290d29935d", "name": "Nohpat", "place_type": "archaeological_site", "date_start": null, "date_end": null, "date_precision": "period_only", "date_label": null, "elevation_m": null}}, {"type": "Feature", "id": "950b788f-8108-4201-9a18-8446118ae644", "geometry": {"type": "Point", "coordinates": [-91.154667, 16.855075]}, "properties": {"_entity_id": "950b788f-8108-4201-9a18-8446118ae644", "name": "Ojo de Agua", "place_type": "archaeological_site", "date_start": null, "date_end": null, "date_precision": "period_only", "date_label": null, "elevation_m": null}}, {"type": "Feature", "id": "27f0fd1b-ce98-44a0-97c0-1137e73e7b7e", "geometry": {"type": "Point", "coordinates": [-89.250915, 17.940167]}, "properties": {"_entity_id": "27f0fd1b-ce98-44a0-97c0-1137e73e7b7e", "name": "Ojo de Agua", "place_type": "archaeological_site", "date_start": null, "date_end": null, "date_precision": "period_only", "date_label": null, "elevation_m": null}}, {"type": "Feature", "id": "dc076394-f455-4183-a57c-d354d6ef493a", "geometry": {"type": "Point", "coordinates": [-88.459167, 19.965988]}, "properties": {"_entity_id": "dc076394-f455-4183-a57c-d354d6ef493a", "name": "Okop", "place_type": "archaeological_site", "date_start": null, "date_end": null, "date_precision": "period_only", "date_label": null, "elevation_m": null}}, {"type": "Feature", "id": "08e63bb4-1380-4fab-90cb-9a2c90e8f4f0", "geometry": {"type": "Point", "coordinates": [-89.953492, 20.562377]}, "properties": {"_entity_id": "08e63bb4-1380-4fab-90cb-9a2c90e8f4f0", "name": "Oxkintok", "place_type": "archaeological_site", "date_start": null, "date_end": null, "date_precision": "period_only", "date_label": null, "elevation_m": null}}, {"type": "Feature", "id": "d013d31b-5473-492b-8f68-39fb9689abe4", "geometry": {"type": "Point", "coordinates": [-89.778381, 18.319755]}, "properties": {"_entity_id": "d013d31b-5473-492b-8f68-39fb9689abe4", "name": "Oxpemul", "place_type": "archaeological_site", "date_start": null, "date_end": null, "date_precision": "period_only", "date_label": null, "elevation_m": null}}, {"type": "Feature", "id": "886e618b-2d93-47d5-a4b4-b46ed06c6b6d", "geometry": {"type": "Point", "coordinates": [-88.99433, 17.09211]}, "properties": {"_entity_id": "886e618b-2d93-47d5-a4b4-b46ed06c6b6d", "name": "Pacbitun", "place_type": "archaeological_site", "date_start": null, "date_end": null, "date_precision": "period_only", "date_label": null, "elevation_m": null}}, {"type": "Feature", "id": "2e7236d3-8345-4fe0-b397-375a73ab1c8d", "geometry": {"type": "Point", "coordinates": [-92.046888, 17.483877]}, "properties": {"_entity_id": "2e7236d3-8345-4fe0-b397-375a73ab1c8d", "name": "Palenque", "place_type": "archaeological_site", "date_start": null, "date_end": null, "date_precision": "period_only", "date_label": null, "elevation_m": null}}, {"type": "Feature", "id": "153c472f-fbef-4a0a-8e2a-c1468f2276f7", "geometry": {"type": "Point", "coordinates": [-89.308934, 18.425171]}, "properties": {"_entity_id": "153c472f-fbef-4a0a-8e2a-c1468f2276f7", "name": "Pasi\u00c3\u00b3n del Cristo", "place_type": "archaeological_site", "date_start": null, "date_end": null, "date_precision": "period_only", "date_label": null, "elevation_m": null}}, {"type": "Feature", "id": "732c51b3-14b4-48e7-93a5-0b84b776d4ef", "geometry": {"type": "Point", "coordinates": [-92.010762, 16.890805]}, "properties": {"_entity_id": "732c51b3-14b4-48e7-93a5-0b84b776d4ef", "name": "Pestac", "place_type": "archaeological_site", "date_start": null, "date_end": null, "date_precision": "period_only", "date_label": null, "elevation_m": null}}, {"type": "Feature", "id": "ec189909-92b1-4564-827d-8b381e961c53", "geometry": {"type": "Point", "coordinates": [-91.260188, 17.168695]}, "properties": {"_entity_id": "ec189909-92b1-4564-827d-8b381e961c53", "name": "Piedras Negras", "place_type": "archaeological_site", "date_start": null, "date_end": null, "date_precision": "period_only", "date_label": null, "elevation_m": null}}, {"type": "Feature", "id": "84d69ed5-5e07-4d1f-aaa4-62b716635dea", "geometry": {"type": "Point", "coordinates": [-87.445515, 19.92694]}, "properties": {"_entity_id": "84d69ed5-5e07-4d1f-aaa4-62b716635dea", "name": "Pistolas", "place_type": "archaeological_site", "date_start": null, "date_end": null, "date_precision": "period_only", "date_label": null, "elevation_m": null}}, {"type": "Feature", "id": "eb8732a8-f4b2-49ba-b70c-663d73c38c87", "geometry": {"type": "Point", "coordinates": [-89.746794, 19.819349]}, "properties": {"_entity_id": "eb8732a8-f4b2-49ba-b70c-663d73c38c87", "name": "Pixoy", "place_type": "archaeological_site", "date_start": null, "date_end": null, "date_precision": "period_only", "date_label": null, "elevation_m": null}}, {"type": "Feature", "id": "cba4f2d6-1031-49e8-91cc-c022c38b64b2", "geometry": {"type": "Point", "coordinates": [-91.279784, 16.784024]}, "properties": {"_entity_id": "cba4f2d6-1031-49e8-91cc-c022c38b64b2", "name": "Plan de AyutlaSak Tz'i'", "place_type": "archaeological_site", "date_start": null, "date_end": null, "date_precision": "period_only", "date_label": null, "elevation_m": null}}, {"type": "Feature", "id": "91128e65-7b6d-430e-a82a-fca4088d5c9c", "geometry": {"type": "Point", "coordinates": [-87.08282, 20.61497]}, "properties": {"_entity_id": "91128e65-7b6d-430e-a82a-fca4088d5c9c", "name": "Playa del Carmen", "place_type": "archaeological_site", "date_start": null, "date_end": null, "date_precision": "period_only", "date_label": null, "elevation_m": null}}, {"type": "Feature", "id": "70438d7d-bb4e-4f59-883b-9798fd04f166", "geometry": {"type": "Point", "coordinates": [-89.2663, 18.38375]}, "properties": {"_entity_id": "70438d7d-bb4e-4f59-883b-9798fd04f166", "name": "Pok", "place_type": "archaeological_site", "date_start": null, "date_end": null, "date_precision": "period_only", "date_label": null, "elevation_m": null}}, {"type": "Feature", "id": "03bb362f-1d01-4f3e-894e-a459f0ca4f26", "geometry": {"type": "Point", "coordinates": [-88.843382, 18.543005]}, "properties": {"_entity_id": "03bb362f-1d01-4f3e-894e-a459f0ca4f26", "name": "Pol Box", "place_type": "archaeological_site", "date_start": null, "date_end": null, "date_precision": "period_only", "date_label": null, "elevation_m": null}}, {"type": "Feature", "id": "f7079661-4a4f-46a0-8f58-1cd97bd9ce2b", "geometry": {"type": "Point", "coordinates": [-90.20833, 16.788889]}, "properties": {"_entity_id": "f7079661-4a4f-46a0-8f58-1cd97bd9ce2b", "name": "Polol", "place_type": "archaeological_site", "date_start": null, "date_end": null, "date_precision": "period_only", "date_label": null, "elevation_m": null}}, {"type": "Feature", "id": "7d7eaa04-dbe0-43c9-81ca-9b45f12cfd61", "geometry": {"type": "Point", "coordinates": [-88.374721, 16.989846]}, "properties": {"_entity_id": "7d7eaa04-dbe0-43c9-81ca-9b45f12cfd61", "name": "Pomona", "place_type": "archaeological_site", "date_start": null, "date_end": null, "date_precision": "period_only", "date_label": null, "elevation_m": null}}, {"type": "Feature", "id": "aa83dc3e-6913-4734-8922-942d6bf5f32e", "geometry": {"type": "Point", "coordinates": [-91.570211, 17.484629]}, "properties": {"_entity_id": "aa83dc3e-6913-4734-8922-942d6bf5f32e", "name": "Pomona", "place_type": "archaeological_site", "date_start": null, "date_end": null, "date_precision": "period_only", "date_label": null, "elevation_m": null}}, {"type": "Feature", "id": "d587eb72-1d74-4dc1-aae5-3db84c6b8b9d", "geometry": {"type": "Point", "coordinates": [-90.22544, 20.11094]}, "properties": {"_entity_id": "d587eb72-1d74-4dc1-aae5-3db84c6b8b9d", "name": "Pomuch", "place_type": "archaeological_site", "date_start": null, "date_end": null, "date_precision": "period_only", "date_label": null, "elevation_m": null}}, {"type": "Feature", "id": "c14dafab-4d0d-43b7-8e6e-6d3f85488518", "geometry": {"type": "Point", "coordinates": [-88.852032, 17.15418]}, "properties": {"_entity_id": "c14dafab-4d0d-43b7-8e6e-6d3f85488518", "name": "Pook's Hill", "place_type": "archaeological_site", "date_start": null, "date_end": null, "date_precision": "period_only", "date_label": null, "elevation_m": null}}, {"type": "Feature", "id": "298f5efe-e6c4-472a-a16d-5a7bd5916381", "geometry": {"type": "Point", "coordinates": [-88.633618, 20.581488]}, "properties": {"_entity_id": "298f5efe-e6c4-472a-a16d-5a7bd5916381", "name": "PopolaPusil", "place_type": "archaeological_site", "date_start": null, "date_end": null, "date_precision": "period_only", "date_label": null, "elevation_m": null}}, {"type": "Feature", "id": "faa4f9a3-b25e-4a63-aa4c-f3f37f356aa5", "geometry": {"type": "Point", "coordinates": [-89.41, 16.337587]}, "properties": {"_entity_id": "faa4f9a3-b25e-4a63-aa4c-f3f37f356aa5", "name": "Poptun", "place_type": "archaeological_site", "date_start": null, "date_end": null, "date_precision": "period_only", "date_label": null, "elevation_m": null}}, {"type": "Feature", "id": "74b49204-da91-4aca-b27b-a50a728b5a11", "geometry": {"type": "Point", "coordinates": [-89.122, 16.92]}, "properties": {"_entity_id": "74b49204-da91-4aca-b27b-a50a728b5a11", "name": "Pottery Hill Cave", "place_type": "archaeological_site", "date_start": null, "date_end": null, "date_precision": "period_only", "date_label": null, "elevation_m": null}}, {"type": "Feature", "id": "3754aaa0-3a2d-4c33-b39c-001712fd1f67", "geometry": {"type": "Point", "coordinates": [-90.67155, 16.559623]}, "properties": {"_entity_id": "3754aaa0-3a2d-4c33-b39c-001712fd1f67", "name": "Primera Seccion Benemerito de las Americas", "place_type": "archaeological_site", "date_start": null, "date_end": null, "date_precision": "period_only", "date_label": null, "elevation_m": null}}, {"type": "Feature", "id": "b2f39e88-305d-4851-a3b9-2a8dde9b9170", "geometry": {"type": "Point", "coordinates": [-90.1922, 16.43196]}, "properties": {"_entity_id": "b2f39e88-305d-4851-a3b9-2a8dde9b9170", "name": "Punta Chimino", "place_type": "archaeological_site", "date_start": null, "date_end": null, "date_precision": "period_only", "date_label": null, "elevation_m": null}}, {"type": "Feature", "id": "8f996f44-2cb4-4b0d-9515-ccbc31bc8db5", "geometry": {"type": "Point", "coordinates": [-89.195278, 16.1125]}, "properties": {"_entity_id": "8f996f44-2cb4-4b0d-9515-ccbc31bc8db5", "name": "Pusilha", "place_type": "archaeological_site", "date_start": null, "date_end": null, "date_precision": "period_only", "date_label": null, "elevation_m": null}}, {"type": "Feature", "id": "f0a2b303-30e2-4ae7-a05a-a36c2eac49c2", "geometry": {"type": "Point", "coordinates": [-89.04033, 15.27046]}, "properties": {"_entity_id": "f0a2b303-30e2-4ae7-a05a-a36c2eac49c2", "name": "Quirigua", "place_type": "archaeological_site", "date_start": null, "date_end": null, "date_precision": "period_only", "date_label": null, "elevation_m": null}}, {"type": "Feature", "id": "b32be5e4-f3e9-42e3-b1ac-c734a54e656f", "geometry": {"type": "Point", "coordinates": [-87.138013, 20.580423]}, "properties": {"_entity_id": "b32be5e4-f3e9-42e3-b1ac-c734a54e656f", "name": "Rancho Ina", "place_type": "archaeological_site", "date_start": null, "date_end": null, "date_precision": "period_only", "date_label": null, "elevation_m": null}}, {"type": "Feature", "id": "2b4f5d24-46df-48a1-84ad-637bac7141cf", "geometry": {"type": "Point", "coordinates": [-89.493202, 19.97902]}, "properties": {"_entity_id": "2b4f5d24-46df-48a1-84ad-637bac7141cf", "name": "Rancho Perez", "place_type": "archaeological_site", "date_start": null, "date_end": null, "date_precision": "period_only", "date_label": null, "elevation_m": null}}, {"type": "Feature", "id": "efb8944c-2b8e-4577-b658-20770e45695b", "geometry": {"type": "Point", "coordinates": [-90.663026, 15.657987]}, "properties": {"_entity_id": "efb8944c-2b8e-4577-b658-20770e45695b", "name": "Ratinlixul", "place_type": "archaeological_site", "date_start": null, "date_end": null, "date_precision": "period_only", "date_label": null, "elevation_m": null}}, {"type": "Feature", "id": "39815f1a-806a-4d40-bab7-fccfcfc3f682", "geometry": {"type": "Point", "coordinates": [-89.003077, 14.889382]}, "properties": {"_entity_id": "39815f1a-806a-4d40-bab7-fccfcfc3f682", "name": "R\u00c3\u00ado Amarillo", "place_type": "archaeological_site", "date_start": null, "date_end": null, "date_precision": "period_only", "date_label": null, "elevation_m": null}}, {"type": "Feature", "id": "f6a41082-3d46-4a99-89ff-d065217b0e18", "geometry": {"type": "Point", "coordinates": [-89.280009, 17.779073]}, "properties": {"_entity_id": "f6a41082-3d46-4a99-89ff-d065217b0e18", "name": "R\u00c3\u00ado AzulIxcanr\u00c3\u00ado = Las Gardenias", "place_type": "archaeological_site", "date_start": null, "date_end": null, "date_precision": "period_only", "date_label": null, "elevation_m": null}}, {"type": "Feature", "id": "088a98e0-b6ed-4352-b1e9-2aeb11cb7580", "geometry": {"type": "Point", "coordinates": [-89.3797, 18.33961]}, "properties": {"_entity_id": "088a98e0-b6ed-4352-b1e9-2aeb11cb7580", "name": "R\u00c3\u00ado Bec", "place_type": "archaeological_site", "date_start": null, "date_end": null, "date_precision": "period_only", "date_label": null, "elevation_m": null}}, {"type": "Feature", "id": "2af1cd74-91c7-401f-88d4-f370bd1813f4", "geometry": {"type": "Point", "coordinates": [-88.661763, 18.117915]}, "properties": {"_entity_id": "2af1cd74-91c7-401f-88d4-f370bd1813f4", "name": "R\u00c3\u00ado Hondo", "place_type": "archaeological_site", "date_start": null, "date_end": null, "date_precision": "period_only", "date_label": null, "elevation_m": null}}, {"type": "Feature", "id": "aef94d0e-b741-4a31-a5f2-2ad0d7d5ab51", "geometry": {"type": "Point", "coordinates": [-89.569717, 20.20395]}, "properties": {"_entity_id": "aef94d0e-b741-4a31-a5f2-2ad0d7d5ab51", "name": "Sabacche", "place_type": "archaeological_site", "date_start": null, "date_end": null, "date_precision": "period_only", "date_label": null, "elevation_m": null}}, {"type": "Feature", "id": "fb0ab135-193f-41ec-a491-e3a747ad8815", "geometry": {"type": "Point", "coordinates": [-89.617333, 20.105633]}, "properties": {"_entity_id": "fb0ab135-193f-41ec-a491-e3a747ad8815", "name": "Sabana Piletas", "place_type": "archaeological_site", "date_start": null, "date_end": null, "date_precision": "period_only", "date_label": null, "elevation_m": null}}, {"type": "Feature", "id": "a54cd10f-a99f-4858-ba94-4889f631ca97", "geometry": {"type": "Point", "coordinates": [-91.78753, 16.0803]}, "properties": {"_entity_id": "a54cd10f-a99f-4858-ba94-4889f631ca97", "name": "Sacchana", "place_type": "archaeological_site", "date_start": null, "date_end": null, "date_precision": "period_only", "date_label": null, "elevation_m": null}}, {"type": "Feature", "id": "68f195f5-794c-4957-b578-47e4410e99c4", "geometry": {"type": "Point", "coordinates": [-89.585726, 20.204335]}, "properties": {"_entity_id": "68f195f5-794c-4957-b578-47e4410e99c4", "name": "Sacnicte", "place_type": "archaeological_site", "date_start": null, "date_end": null, "date_precision": "period_only", "date_label": null, "elevation_m": null}}, {"type": "Feature", "id": "62099921-93ac-47c1-ac49-7cc2067b8db2", "geometry": {"type": "Point", "coordinates": [-89.291883, 16.538017]}, "properties": {"_entity_id": "62099921-93ac-47c1-ac49-7cc2067b8db2", "name": "Sacul", "place_type": "archaeological_site", "date_start": null, "date_end": null, "date_precision": "period_only", "date_label": null, "elevation_m": null}}, {"type": "Feature", "id": "a81208e0-4d6d-4b48-b037-e1e92f18876c", "geometry": {"type": "Point", "coordinates": [-90.61709, 15.989219]}, "properties": {"_entity_id": "a81208e0-4d6d-4b48-b037-e1e92f18876c", "name": "Salinas de los Nueve Cerros", "place_type": "archaeological_site", "date_start": null, "date_end": null, "date_precision": "period_only", "date_label": null, "elevation_m": null}}, {"type": "Feature", "id": "c07232b7-80e1-4768-9b2f-5773396e4f9f", "geometry": {"type": "Point", "coordinates": [-89.403888, 17.548333]}, "properties": {"_entity_id": "c07232b7-80e1-4768-9b2f-5773396e4f9f", "name": "San Bartolo", "place_type": "archaeological_site", "date_start": null, "date_end": null, "date_precision": "period_only", "date_label": null, "elevation_m": null}}, {"type": "Feature", "id": "cf3a7443-4417-4d09-bdee-a71a08ca05c4", "geometry": {"type": "Point", "coordinates": [-89.521133, 17.016816]}, "properties": {"_entity_id": "cf3a7443-4417-4d09-bdee-a71a08ca05c4", "name": "San Clemente", "place_type": "archaeological_site", "date_start": null, "date_end": null, "date_precision": "period_only", "date_label": null, "elevation_m": null}}, {"type": "Feature", "id": "3029f4af-56bf-4f17-ba94-fed71f4ec818", "geometry": {"type": "Point", "coordinates": [-90.469883, 16.91705]}, "properties": {"_entity_id": "3029f4af-56bf-4f17-ba94-fed71f4ec818", "name": "San Diego", "place_type": "archaeological_site", "date_start": null, "date_end": null, "date_precision": "period_only", "date_label": null, "elevation_m": null}}, {"type": "Feature", "id": "c733207d-8c24-4d44-b529-38eed6ff9d65", "geometry": {"type": "Point", "coordinates": [-89.291483, 19.857717]}, "properties": {"_entity_id": "c733207d-8c24-4d44-b529-38eed6ff9d65", "name": "San Diego Becanchen", "place_type": "archaeological_site", "date_start": null, "date_end": null, "date_precision": "period_only", "date_label": null, "elevation_m": null}}, {"type": "Feature", "id": "a5e893b4-d806-4512-8ef5-666dc3f3b498", "geometry": {"type": "Point", "coordinates": [-86.846276, 20.499973]}, "properties": {"_entity_id": "a5e893b4-d806-4512-8ef5-666dc3f3b498", "name": "San Gervasio", "place_type": "archaeological_site", "date_start": null, "date_end": null, "date_precision": "period_only", "date_label": null, "elevation_m": null}}, {"type": "Feature", "id": "38912542-7a40-4016-a479-d4e3c6e67717", "geometry": {"type": "Point", "coordinates": [-90.10644, 20.17066]}, "properties": {"_entity_id": "38912542-7a40-4016-a479-d4e3c6e67717", "name": "San Joaqu\u00c3\u00adn", "place_type": "archaeological_site", "date_start": null, "date_end": null, "date_precision": "period_only", "date_label": null, "elevation_m": null}}, {"type": "Feature", "id": "09b7e53e-c3f4-4f46-ba58-3c488904e975", "geometry": {"type": "Point", "coordinates": [-90.09892, 20.17343]}, "properties": {"_entity_id": "09b7e53e-c3f4-4f46-ba58-3c488904e975", "name": "San Joaqu\u00c3\u00adn II", "place_type": "archaeological_site", "date_start": null, "date_end": null, "date_precision": "period_only", "date_label": null, "elevation_m": null}}, {"type": "Feature", "id": "196351eb-27bb-48b6-af04-1f2e8a8dfd0f", "geometry": {"type": "Point", "coordinates": [-89.5475, 18.382333]}, "properties": {"_entity_id": "196351eb-27bb-48b6-af04-1f2e8a8dfd0f", "name": "San Lorenzo", "place_type": "archaeological_site", "date_start": null, "date_end": null, "date_precision": "period_only", "date_label": null, "elevation_m": null}}, {"type": "Feature", "id": "68ed8f3e-313f-4302-bb68-c3a2e3c00296", "geometry": {"type": "Point", "coordinates": [-89.811, 20.20283]}, "properties": {"_entity_id": "68ed8f3e-313f-4302-bb68-c3a2e3c00296", "name": "San Simon Pueblo", "place_type": "archaeological_site", "date_start": null, "date_end": null, "date_precision": "period_only", "date_label": null, "elevation_m": null}}, {"type": "Feature", "id": "e8338726-a4a4-4919-9347-5479ea4d194b", "geometry": {"type": "Point", "coordinates": [-90.11183, 20.70333]}, "properties": {"_entity_id": "e8338726-a4a4-4919-9347-5479ea4d194b", "name": "Santa B\u00c3\u00a1rbara", "place_type": "archaeological_site", "date_start": null, "date_end": null, "date_precision": "period_only", "date_label": null, "elevation_m": null}}, {"type": "Feature", "id": "6d21fa80-02f4-44c8-a202-c3d6dbffa401", "geometry": {"type": "Point", "coordinates": [-91.414444, 17.625003]}, "properties": {"_entity_id": "6d21fa80-02f4-44c8-a202-c3d6dbffa401", "name": "Santa Elena Balancan", "place_type": "archaeological_site", "date_start": null, "date_end": null, "date_precision": "period_only", "date_label": null, "elevation_m": null}}, {"type": "Feature", "id": "b15210be-ba34-4800-8be6-155d72ab3c55", "geometry": {"type": "Point", "coordinates": [-91.739021, 16.587477]}, "properties": {"_entity_id": "b15210be-ba34-4800-8be6-155d72ab3c55", "name": "Santa Elena Poco Uinic", "place_type": "archaeological_site", "date_start": null, "date_end": null, "date_precision": "period_only", "date_label": null, "elevation_m": null}}, {"type": "Feature", "id": "fb6bdd7c-ff52-4f1d-8d2a-47f479cb522e", "geometry": {"type": "Point", "coordinates": [-88.395094, 18.40232]}, "properties": {"_entity_id": "fb6bdd7c-ff52-4f1d-8d2a-47f479cb522e", "name": "Santa Rita Corozal", "place_type": "archaeological_site", "date_start": null, "date_end": null, "date_precision": "period_only", "date_label": null, "elevation_m": null}}, {"type": "Feature", "id": "49d144e7-bd2e-43f8-a971-e82a245b25e3", "geometry": {"type": "Point", "coordinates": [-89.598232, 19.77258]}, "properties": {"_entity_id": "49d144e7-bd2e-43f8-a971-e82a245b25e3", "name": "Santa Rosa Xtampak", "place_type": "archaeological_site", "date_start": null, "date_end": null, "date_precision": "period_only", "date_label": null, "elevation_m": null}}, {"type": "Feature", "id": "7adc63a0-479b-434a-a00b-dcd60c391781", "geometry": {"type": "Point", "coordinates": [-89.651939, 20.177985]}, "properties": {"_entity_id": "7adc63a0-479b-434a-a00b-dcd60c391781", "name": "Sayil", "place_type": "archaeological_site", "date_start": null, "date_end": null, "date_precision": "period_only", "date_label": null, "elevation_m": null}}, {"type": "Feature", "id": "1587a291-6225-480d-b44e-508cf0a18563", "geometry": {"type": "Point", "coordinates": [-90.061565, 16.513575]}, "properties": {"_entity_id": "1587a291-6225-480d-b44e-508cf0a18563", "name": "Seibal", "place_type": "archaeological_site", "date_start": null, "date_end": null, "date_precision": "period_only", "date_label": null, "elevation_m": null}}, {"type": "Feature", "id": "a6aed9f4-1b16-4018-b701-45caa9907e2c", "geometry": {"type": "Point", "coordinates": [-90.171916, 20.489802]}, "properties": {"_entity_id": "a6aed9f4-1b16-4018-b701-45caa9907e2c", "name": "Siho", "place_type": "archaeological_site", "date_start": null, "date_end": null, "date_precision": "period_only", "date_label": null, "elevation_m": null}}, {"type": "Feature", "id": "aca35a2f-a6e7-4189-b7bf-9a480a8b39b2", "geometry": {"type": "Point", "coordinates": [-89.888846, 20.220726]}, "properties": {"_entity_id": "aca35a2f-a6e7-4189-b7bf-9a480a8b39b2", "name": "SisilhaSisila", "place_type": "archaeological_site", "date_start": null, "date_end": null, "date_precision": "period_only", "date_label": null, "elevation_m": null}}, {"type": "Feature", "id": "7a3f533e-bf53-4c6f-bd5e-aef2614e2a01", "geometry": {"type": "Point", "coordinates": [-91.733077, 14.634945]}, "properties": {"_entity_id": "7a3f533e-bf53-4c6f-bd5e-aef2614e2a01", "name": "Tak'alik Ab'aj", "place_type": "archaeological_site", "date_start": null, "date_end": null, "date_precision": "period_only", "date_label": null, "elevation_m": null}}, {"type": "Feature", "id": "c4a05a13-0e83-40aa-b8db-e86fcafad71a", "geometry": {"type": "Point", "coordinates": [-90.238642, 16.451161]}, "properties": {"_entity_id": "c4a05a13-0e83-40aa-b8db-e86fcafad71a", "name": "Tamarindito", "place_type": "archaeological_site", "date_start": null, "date_end": null, "date_precision": "period_only", "date_label": null, "elevation_m": null}}, {"type": "Feature", "id": "6606d081-dfa9-4aed-8424-00aa7b8c633d", "geometry": {"type": "Point", "coordinates": [-87.41432, 20.24628]}, "properties": {"_entity_id": "6606d081-dfa9-4aed-8424-00aa7b8c633d", "name": "Tancah", "place_type": "archaeological_site", "date_start": null, "date_end": null, "date_precision": "period_only", "date_label": null, "elevation_m": null}}, {"type": "Feature", "id": "e9763d95-7e79-4a47-b28c-08906598d544", "geometry": {"type": "Point", "coordinates": [-89.8969, 16.93762]}, "properties": {"_entity_id": "e9763d95-7e79-4a47-b28c-08906598d544", "name": "Tayasal", "place_type": "archaeological_site", "date_start": null, "date_end": null, "date_precision": "period_only", "date_label": null, "elevation_m": null}}, {"type": "Feature", "id": "5f975501-8d1c-40e8-8520-70e1dc0e721a", "geometry": {"type": "Point", "coordinates": [-89.40335, 20.287296]}, "properties": {"_entity_id": "5f975501-8d1c-40e8-8520-70e1dc0e721a", "name": "Techoh", "place_type": "archaeological_site", "date_start": null, "date_end": null, "date_precision": "period_only", "date_label": null, "elevation_m": null}}, {"type": "Feature", "id": "3d47adba-d517-4e55-9937-79b9868aa23a", "geometry": {"type": "Point", "coordinates": [-91.089809, 16.981835]}, "properties": {"_entity_id": "3d47adba-d517-4e55-9937-79b9868aa23a", "name": "Tecolote", "place_type": "archaeological_site", "date_start": null, "date_end": null, "date_precision": "period_only", "date_label": null, "elevation_m": null}}, {"type": "Feature", "id": "9b0cbd66-0804-41b2-aee2-0a0584f1b9c9", "geometry": {"type": "Point", "coordinates": [-89.623542, 17.222049]}, "properties": {"_entity_id": "9b0cbd66-0804-41b2-aee2-0a0584f1b9c9", "name": "Tikal", "place_type": "archaeological_site", "date_start": null, "date_end": null, "date_precision": "period_only", "date_label": null, "elevation_m": null}}, {"type": "Feature", "id": "a541c169-4b69-4e09-bcf6-bbf5858b4b81", "geometry": {"type": "Point", "coordinates": [-89.996414, 17.580455]}, "properties": {"_entity_id": "a541c169-4b69-4e09-bcf6-bbf5858b4b81", "name": "Tintal", "place_type": "archaeological_site", "date_start": null, "date_end": null, "date_precision": "period_only", "date_label": null, "elevation_m": null}}, {"type": "Feature", "id": "ddb66386-9850-4582-9093-87654cec2751", "geometry": {"type": "Point", "coordinates": [-88.8, 17.1]}, "properties": {"_entity_id": "ddb66386-9850-4582-9093-87654cec2751", "name": "Tipan Chen Uitz", "place_type": "archaeological_site", "date_start": null, "date_end": null, "date_precision": "period_only", "date_label": null, "elevation_m": null}}, {"type": "Feature", "id": "c1009c17-b6ff-4595-a46e-0376495f3b2b", "geometry": {"type": "Point", "coordinates": [-89.875133, 19.770274]}, "properties": {"_entity_id": "c1009c17-b6ff-4595-a46e-0376495f3b2b", "name": "Tohcok", "place_type": "archaeological_site", "date_start": null, "date_end": null, "date_precision": "period_only", "date_label": null, "elevation_m": null}}, {"type": "Feature", "id": "19e7348e-a266-4b0a-b6e4-4a33009ad958", "geometry": {"type": "Point", "coordinates": [-93.7652, 16.05601]}, "properties": {"_entity_id": "19e7348e-a266-4b0a-b6e4-4a33009ad958", "name": "Tonala", "place_type": "archaeological_site", "date_start": null, "date_end": null, "date_precision": "period_only", "date_label": null, "elevation_m": null}}, {"type": "Feature", "id": "af12010b-bae6-4eb5-ad8d-25fc70ab7455", "geometry": {"type": "Point", "coordinates": [-92.00967, 16.90122]}, "properties": {"_entity_id": "af12010b-bae6-4eb5-ad8d-25fc70ab7455", "name": "Tonina", "place_type": "archaeological_site", "date_start": null, "date_end": null, "date_precision": "period_only", "date_label": null, "elevation_m": null}}, {"type": "Feature", "id": "09fd7e51-3001-4c6b-87d3-018324d73931", "geometry": {"type": "Point", "coordinates": [-89.424462, 17.062237]}, "properties": {"_entity_id": "09fd7e51-3001-4c6b-87d3-018324d73931", "name": "Topoxte", "place_type": "archaeological_site", "date_start": null, "date_end": null, "date_precision": "period_only", "date_label": null, "elevation_m": null}}, {"type": "Feature", "id": "13455cec-e846-4253-a883-37f12a6fb14e", "geometry": {"type": "Point", "coordinates": [-90.0529, 16.196947]}, "properties": {"_entity_id": "13455cec-e846-4253-a883-37f12a6fb14e", "name": "Tres Islas", "place_type": "archaeological_site", "date_start": null, "date_end": null, "date_precision": "period_only", "date_label": null, "elevation_m": null}}, {"type": "Feature", "id": "90827410-8163-45dc-94ea-6dfbb196cb60", "geometry": {"type": "Point", "coordinates": [-87.42889, 20.21472]}, "properties": {"_entity_id": "90827410-8163-45dc-94ea-6dfbb196cb60", "name": "Tulum", "place_type": "archaeological_site", "date_start": null, "date_end": null, "date_precision": "period_only", "date_label": null, "elevation_m": null}}, {"type": "Feature", "id": "2d6fc4ee-6790-4665-82a9-8fbdbd2142ed", "geometry": {"type": "Point", "coordinates": [-89.70823, 20.07128]}, "properties": {"_entity_id": "2d6fc4ee-6790-4665-82a9-8fbdbd2142ed", "name": "Tunkuyi", "place_type": "archaeological_site", "date_start": null, "date_end": null, "date_precision": "period_only", "date_label": null, "elevation_m": null}}, {"type": "Feature", "id": "410110df-13e1-407a-a4b5-c13d7eb73561", "geometry": {"type": "Point", "coordinates": [-89.43444, 17.69056]}, "properties": {"_entity_id": "410110df-13e1-407a-a4b5-c13d7eb73561", "name": "Tz'ibatnah", "place_type": "archaeological_site", "date_start": null, "date_end": null, "date_precision": "period_only", "date_label": null, "elevation_m": null}}, {"type": "Feature", "id": "e50f317c-aac0-4f3b-b96c-db066d29d5a2", "geometry": {"type": "Point", "coordinates": [-88.75866, 18.63841]}, "properties": {"_entity_id": "e50f317c-aac0-4f3b-b96c-db066d29d5a2", "name": "Tzibanche", "place_type": "archaeological_site", "date_start": null, "date_end": null, "date_precision": "period_only", "date_label": null, "elevation_m": null}}, {"type": "Feature", "id": "a462cf46-ac2d-46f9-925d-cc64117259e9", "geometry": {"type": "Point", "coordinates": [-88.799744, 16.393231]}, "properties": {"_entity_id": "a462cf46-ac2d-46f9-925d-cc64117259e9", "name": "Tzimin Che", "place_type": "archaeological_site", "date_start": null, "date_end": null, "date_precision": "period_only", "date_label": null, "elevation_m": null}}, {"type": "Feature", "id": "d7027ddf-c9d2-4c1b-aa02-bcb4b248736d", "geometry": {"type": "Point", "coordinates": [-89.97303, 20.20572]}, "properties": {"_entity_id": "d7027ddf-c9d2-4c1b-aa02-bcb4b248736d", "name": "Tzocchen", "place_type": "archaeological_site", "date_start": null, "date_end": null, "date_precision": "period_only", "date_label": null, "elevation_m": null}}, {"type": "Feature", "id": "c3e9d3d0-b2c1-434b-a0b1-46d40a473b51", "geometry": {"type": "Point", "coordinates": [-89.82075, 19.969483]}, "properties": {"_entity_id": "c3e9d3d0-b2c1-434b-a0b1-46d40a473b51", "name": "Tzum", "place_type": "archaeological_site", "date_start": null, "date_end": null, "date_precision": "period_only", "date_label": null, "elevation_m": null}}, {"type": "Feature", "id": "f9406e9f-0404-405b-a9a8-dc152222e2ea", "geometry": {"type": "Point", "coordinates": [-89.629533, 17.391196]}, "properties": {"_entity_id": "f9406e9f-0404-405b-a9a8-dc152222e2ea", "name": "Uaxactun", "place_type": "archaeological_site", "date_start": null, "date_end": null, "date_precision": "period_only", "date_label": null, "elevation_m": null}}, {"type": "Feature", "id": "55b42d40-b856-4572-a01d-f556b016e134", "geometry": {"type": "Point", "coordinates": [-90.477431, 20.454841]}, "properties": {"_entity_id": "55b42d40-b856-4572-a01d-f556b016e134", "name": "Uaymil", "place_type": "archaeological_site", "date_start": null, "date_end": null, "date_precision": "period_only", "date_label": null, "elevation_m": null}}, {"type": "Feature", "id": "80160ef8-7a7c-4359-84ed-62a60cc0fc1b", "geometry": {"type": "Point", "coordinates": [-89.3625, 16.8405]}, "properties": {"_entity_id": "80160ef8-7a7c-4359-84ed-62a60cc0fc1b", "name": "Ucanal", "place_type": "archaeological_site", "date_start": null, "date_end": null, "date_precision": "period_only", "date_label": null, "elevation_m": null}}, {"type": "Feature", "id": "65317a9f-fb3e-48ca-90e2-a030f7651921", "geometry": {"type": "Point", "coordinates": [-89.310834, 20.501666]}, "properties": {"_entity_id": "65317a9f-fb3e-48ca-90e2-a030f7651921", "name": "Ukum", "place_type": "archaeological_site", "date_start": null, "date_end": null, "date_precision": "period_only", "date_label": null, "elevation_m": null}}, {"type": "Feature", "id": "b130a663-2fe5-4d84-a4bf-768ff2cdb496", "geometry": {"type": "Point", "coordinates": [-89.579932, 17.185279]}, "properties": {"_entity_id": "b130a663-2fe5-4d84-a4bf-768ff2cdb496", "name": "Uolantun", "place_type": "archaeological_site", "date_start": null, "date_end": null, "date_precision": "period_only", "date_label": null, "elevation_m": null}},