{"type": "FeatureCollection", "name": "ramsar-wetlands", "crs": {"type": "name", "properties": {"name": "urn:ogc:def:crs:OGC:1.3:CRS84"}}, "features": [{"type": "Feature", "properties": {"official_name_e": "Estero El Chorro", "country": "", "area_ha": null, "_entity_id": "0e8bafd7-b70a-4fa6-88ab-4985cc47bede"}, "geometry": {"type": "Point", "coordinates": [-105.4003934, 19.8971873]}}, {"type": "Feature", "properties": {"official_name_e": "Laguna de Zapotl\u00e1n", "country": "", "area_ha": null, "_entity_id": "4329e806-4c4b-486a-8a8d-eff39e96601d"}, "geometry": {"type": "Point", "coordinates": [-103.4838256, 19.7545521]}}, {"type": "Feature", "properties": {"official_name_e": "Reserva de la Biosfera Chamela-Cuixmala", "country": "", "area_ha": null, "_entity_id": "0a3df40e-57f0-48e4-90fa-3707085adc07"}, "geometry": {"type": "Point", "coordinates": [-104.997512, 19.4769904]}}, {"type": "Feature", "properties": {"official_name_e": "Playa Tortuguera Tierra Colorada", "country": "", "area_ha": null, "_entity_id": "4f2eee13-5da2-4180-bea8-06dfe371e3dd"}, "geometry": {"type": "Point", "coordinates": [-98.6468469, 16.4141808]}}, {"type": "Feature", "properties": {"official_name_e": "Parque Nacional Yaxh\u00e1 - Nak\u00fam - Naranjo", "country": "", "area_ha": null, "_entity_id": "fab113df-90ef-4479-9707-ac39a88ef03a"}, "geometry": {"type": "Point", "coordinates": [-89.3737341, 17.1530105]}}, {"type": "Feature", "properties": {"official_name_e": "Biotopo Laguna del Tigre - Rio Escondido", "country": "", "area_ha": null, "_entity_id": "3b441e6b-2baf-40f4-9d62-35e6828e196f"}, "geometry": {"type": "Point", "coordinates": [-90.8658545, 17.4591155]}}, {"type": "Feature", "properties": {"official_name_e": "\u00c1rea de Uso M\u00faltiple R\u00edo Sarst\u00fan", "country": "", "area_ha": null, "_entity_id": "26844103-940f-4372-9f31-dcb883f56e6b"}, "geometry": {"type": "Point", "coordinates": [-89.002404, 15.8392166]}}, {"type": "Feature", "properties": {"official_name_e": "Refugio de Vida Silvestre Cuero y Salado", "country": "", "area_ha": null, "_entity_id": "e357c971-0392-484f-9d22-0ecca7c69a1a"}, "geometry": {"type": "Point", "coordinates": [-87.0564507, 15.7522855]}}, {"type": "Feature", "properties": {"official_name_e": "Eco-regi\u00f3n Lachu\u00e1", "country": "", "area_ha": null, "_entity_id": "f4a8cb57-67a8-42fb-b00f-78919b520ba9"}, "geometry": {"type": "Point", "coordinates": [-90.6254722, 15.8949113]}}, {"type": "Feature", "properties": {"official_name_e": "\u00c1rea de Protecci\u00f3n de Flora y Fauna Laguna de T\u00e9rminos", "country": "", "area_ha": null, "_entity_id": "c05b0fc7-f015-4eb4-adfd-42a1e4581a56"}, "geometry": {"type": "Point", "coordinates": [-91.7645591, 18.6276202]}}, {"type": "Feature", "properties": {"official_name_e": "Zona N\u00facleo", "country": "", "area_ha": null, "_entity_id": "502ffb86-89a6-4f4e-ac9e-848189a2684f"}, "geometry": {"type": "Point", "coordinates": [-92.4759195, 18.3429345]}}, {"type": "Feature", "properties": {"official_name_e": "Reserva de la Bi\u00f3sfera Pantanos de Centla", "country": "", "area_ha": null, "_entity_id": "1e143435-6867-40a0-b509-62174dfc933e"}, "geometry": {"type": "Point", "coordinates": [-92.4550995, 18.308095]}}, {"type": "Feature", "properties": {"official_name_e": "\u00c1rea de Protecci\u00f3n de Flora y Fauna Ci\u00e9negas del Lerma", "country": "", "area_ha": null, "_entity_id": "a9d9c2e3-5380-49a4-8d82-e5c9ff14d071"}, "geometry": {"type": "Point", "coordinates": [-99.495131, 19.2014916]}}, {"type": "Feature", "properties": {"official_name_e": "Laguna Costera El Caim\u00e1n", "country": "", "area_ha": null, "_entity_id": "0e671986-1fd6-43f5-a64b-e77a90627b2b"}, "geometry": {"type": "Point", "coordinates": [-102.2901124, 17.9734858]}}, {"type": "Feature", "properties": {"official_name_e": "Humedales del lago de P\u00e1tzcuaro", "country": "", "area_ha": null, "_entity_id": "d9e7c5dd-6178-4c55-a5fe-f11cba59bc00"}, "geometry": {"type": "Point", "coordinates": [-101.6722925, 19.5626774]}}, {"type": "Feature", "properties": {"official_name_e": "Marieta Islands", "country": "", "area_ha": null, "_entity_id": "76dfe208-afd4-43b5-81bf-150991c1d023"}, "geometry": {"type": "Point", "coordinates": [-105.5763894, 20.698581]}}, {"type": "Feature", "properties": {"official_name_e": "Revillagigedo Islands", "country": "", "area_ha": null, "_entity_id": "1b5d3ea3-4bd7-4945-b66a-b5f8d4f7856d"}, "geometry": {"type": "Point", "coordinates": [-112.7758075, 18.836991]}}, {"type": "Feature", "properties": {"official_name_e": "Reserva de la Biosfera R\u00eda Lagartos", "country": "", "area_ha": null, "_entity_id": "f5843bd7-77a3-4f67-9894-61934c92e8ca"}, "geometry": {"type": "Point", "coordinates": [-87.8743459, 21.5044558]}}, {"type": "Feature", "properties": {"official_name_e": "", "country": "", "area_ha": null, "_entity_id": "8582e673-4b9d-42c3-94be-0ce2352ef88f"}, "geometry": {"type": "Point", "coordinates": [-105.8861275, 21.8484277]}}, {"type": "Feature", "properties": {"official_name_e": "Santuario de la Tortuga Marina Playa de Rancho Nuevo", "country": "", "area_ha": null, "_entity_id": "63856f60-4983-4efe-a3ce-b645157c5168"}, "geometry": {"type": "Point", "coordinates": [-97.7686274, 23.2347927]}}, {"type": "Feature", "properties": {"official_name_e": "Bosque de las Lomas", "country": "", "area_ha": null, "_entity_id": "98d41d15-c64f-4da0-b9c0-e7647b8886a7"}, "geometry": {"type": "Point", "coordinates": [-99.2438841, 19.4047944]}}, {"type": "Feature", "properties": {"official_name_e": "\u00c1rea de Protecci\u00f3n de Flora y Fauna Manglares de Nichupt\u00e9", "country": "", "area_ha": null, "_entity_id": "c3add4c5-6f91-4bcf-9056-a12b1c4c0f20"}, "geometry": {"type": "Point", "coordinates": [-86.807105, 21.0805917]}}, {"type": "Feature", "properties": {"official_name_e": "Laguna Ebano", "country": "", "area_ha": null, "_entity_id": "90f078a5-6e91-4e7f-90fb-4f96b5ac728a"}, "geometry": {"type": "Point", "coordinates": [-84.80799, 15.8766291]}}]}