{
"type": "FeatureCollection",
"name": "ramsar-wetlands",
"crs": { "type": "name", "properties": { "name": "urn:ogc:def:crs:OGC:1.3:CRS84" } },
"features": [
{ "type": "Feature", "properties": { "official_name_e": "Estero El Chorro", "country": "", "area_ha": null }, "geometry": { "type": "Point", "coordinates": [ -105.4003934, 19.8971873 ] } },
{ "type": "Feature", "properties": { "official_name_e": "Laguna de Zapotlán", "country": "", "area_ha": null }, "geometry": { "type": "Point", "coordinates": [ -103.4838256, 19.7545521 ] } },
{ "type": "Feature", "properties": { "official_name_e": "Reserva de la Biosfera Chamela-Cuixmala", "country": "", "area_ha": null }, "geometry": { "type": "Point", "coordinates": [ -104.997512, 19.4769904 ] } },
{ "type": "Feature", "properties": { "official_name_e": "Playa Tortuguera Tierra Colorada", "country": "", "area_ha": null }, "geometry": { "type": "Point", "coordinates": [ -98.6468469, 16.4141808 ] } },
{ "type": "Feature", "properties": { "official_name_e": "Parque Nacional Yaxhá - Nakúm - Naranjo", "country": "", "area_ha": null }, "geometry": { "type": "Point", "coordinates": [ -89.3737341, 17.1530105 ] } },
{ "type": "Feature", "properties": { "official_name_e": "Biotopo Laguna del Tigre - Rio Escondido", "country": "", "area_ha": null }, "geometry": { "type": "Point", "coordinates": [ -90.8658545, 17.4591155 ] } },
{ "type": "Feature", "properties": { "official_name_e": "Área de Uso Múltiple Río Sarstún", "country": "", "area_ha": null }, "geometry": { "type": "Point", "coordinates": [ -89.002404, 15.8392166 ] } },
{ "type": "Feature", "properties": { "official_name_e": "Refugio de Vida Silvestre Cuero y Salado", "country": "", "area_ha": null }, "geometry": { "type": "Point", "coordinates": [ -87.0564507, 15.7522855 ] } },
{ "type": "Feature", "properties": { "official_name_e": "Eco-región Lachuá", "country": "", "area_ha": null }, "geometry": { "type": "Point", "coordinates": [ -90.6254722, 15.8949113 ] } },
{ "type": "Feature", "properties": { "official_name_e": "Área de Protección de Flora y Fauna Laguna de Términos", "country": "", "area_ha": null }, "geometry": { "type": "Point", "coordinates": [ -91.7645591, 18.6276202 ] } },
{ "type": "Feature", "properties": { "official_name_e": "Zona Núcleo", "country": "", "area_ha": null }, "geometry": { "type": "Point", "coordinates": [ -92.4759195, 18.3429345 ] } },
{ "type": "Feature", "properties": { "official_name_e": "Reserva de la Biósfera Pantanos de Centla", "country": "", "area_ha": null }, "geometry": { "type": "Point", "coordinates": [ -92.4550995, 18.308095 ] } },
{ "type": "Feature", "properties": { "official_name_e": "Área de Protección de Flora y Fauna Ciénegas del Lerma", "country": "", "area_ha": null }, "geometry": { "type": "Point", "coordinates": [ -99.495131, 19.2014916 ] } },
{ "type": "Feature", "properties": { "official_name_e": "Laguna Costera El Caimán", "country": "", "area_ha": null }, "geometry": { "type": "Point", "coordinates": [ -102.2901124, 17.9734858 ] } },
{ "type": "Feature", "properties": { "official_name_e": "Humedales del lago de Pátzcuaro", "country": "", "area_ha": null }, "geometry": { "type": "Point", "coordinates": [ -101.6722925, 19.5626774 ] } },
{ "type": "Feature", "properties": { "official_name_e": "Marieta Islands", "country": "", "area_ha": null }, "geometry": { "type": "Point", "coordinates": [ -105.5763894, 20.698581 ] } },
{ "type": "Feature", "properties": { "official_name_e": "Revillagigedo Islands", "country": "", "area_ha": null }, "geometry": { "type": "Point", "coordinates": [ -112.7758075, 18.836991 ] } },
{ "type": "Feature", "properties": { "official_name_e": "Reserva de la Biosfera Ría Lagartos", "country": "", "area_ha": null }, "geometry": { "type": "Point", "coordinates": [ -87.8743459, 21.5044558 ] } },
{ "type": "Feature", "properties": { "official_name_e": "", "country": "", "area_ha": null }, "geometry": { "type": "Point", "coordinates": [ -105.8861275, 21.8484277 ] } },
{ "type": "Feature", "properties": { "official_name_e": "Santuario de la Tortuga Marina Playa de Rancho Nuevo", "country": "", "area_ha": null }, "geometry": { "type": "Point", "coordinates": [ -97.7686274, 23.2347927 ] } },
{ "type": "Feature", "properties": { "official_name_e": "Bosque de las Lomas", "country": "", "area_ha": null }, "geometry": { "type": "Point", "coordinates": [ -99.2438841, 19.4047944 ] } },
{ "type": "Feature", "properties": { "official_name_e": "Área de Protección de Flora y Fauna Manglares de Nichupté", "country": "", "area_ha": null }, "geometry": { "type": "Point", "coordinates": [ -86.807105, 21.0805917 ] } },
{ "type": "Feature", "properties": { "official_name_e": "Laguna Ebano", "country": "", "area_ha": null }, "geometry": { "type": "Point", "coordinates": [ -84.80799, 15.8766291 ] } }
]
}
